stop_id,stop_name,stop_lat,stop_lon,zone_id,location_type,parent_station,wheelchair_boarding,platform_code
"U15775Z2","Hevlín, škola",48.751285,16.380187,"570",0,U15775N1,2,
"U15773Z2","Hevlín, cihelna",48.761387,16.38346,"570",0,U15773N2,2,
"U15627Z2","Hrabětice",48.796862,16.395222,"560",0,U15627N3,2,
"U15640Z2","Šanov, u mostu",48.799235,16.386832,"560",0,U15640N4,2,
"U15639Z2","Šanov, požární zbrojnice",48.802143,16.373927,"560",0,U15639N5,2,
"U15637Z2","Hrušovany nad Jevišovkou, žel. st.",48.810465,16.38336,"560",0,U15637N6,2,
"U15628Z2","Hrabětice, rozcestí",48.811255,16.39406,"560",0,U15628N7,2,
"U15634Z2","Hrušovany nad Jevišovkou, statek",48.817402,16.397767,"560",0,U15634N8,2,
"U15631Z2","Hrušovany nad Jevišovkou, lékárna",48.829121,16.399494,"560",0,U15631N9,2,
"U15632Z1","Hrušovany nad Jevišovkou, Lidická, VÚPP",48.831472,16.401928,"560",0,U15632N10,2,
"U15635Z2","Hrušovany nad Jevišovkou, STS",48.842858,16.403833,"560",0,U15635N11,2,
"U15553Z2","Litobratřice, u konírny",48.883577,16.400955,"550",0,U15553N12,2,
"U15554Z2","Litobratřice, obecní úřad",48.887875,16.403302,"550",0,U15554N13,2,
"U15552Z2","Jiřice u Miroslavi",48.920697,16.39138,"550",0,U15552N14,2,
"U15430Z2","Troskotovice, prodejna",48.918625,16.432717,"540",0,U15430N15,2,
"U15431Z2","Troskotovice, škola",48.918848,16.436795,"540",0,U15431N16,2,
"U15429Z2","Troskotovice, hřbitov",48.922002,16.441158,"540",0,U15429N17,2,
"U15434Z2","Vlasatice, Troskotovická",48.931067,16.48339,"540",0,U15434N18,2,
"U15433Z2","Vlasatice, obecní úřad",48.933743,16.484258,"540",0,U15433N19,2,
"U15325Z1","Pohořelice, Velký Dvůr, rozcestí",48.96221,16.519497,"530",0,U15325N20,2,
"U15368Z1","Pohořelice, průmyslová zóna jih",48.971925,16.516942,"530",0,U15368N21,2,
"U15327Z1","Pohořelice, Městský úřad",48.977073,16.515407,"530",0,U15327N22,2,
"U15317Z3","Pohořelice, náměstí",48.980878,16.522413,"530",0,U15317N23,2,1
"U15315Z2","Pohořelice, Brněnská",48.984956,16.530513,"530",0,U15315N24,2,
"U15379Z2","Pohořelice, průmyslová zóna východ",48.990539,16.540751,"530",0,U15379N25,2,
"U15122Z4","Modřice, Brněnská",49.130132,16.604936,"510",0,U15122N26,2,
"U1703Z7","Ústřední hřbitov",49.170741,16.597834,"101",0,U1703N27,1,
"U1622Z1","Strážní",49.178207,16.603976,"100",0,U1622N28,2,
"U1696Z9","ÚAN Zvonařka",49.185364,16.616151,"100",0,U1696N29,2,34
"U1622Z2","Strážní",49.178477,16.603646,"100",0,U1622N28,2,
"U1703Z6","Ústřední hřbitov",49.170744,16.597612,"101",0,U1703N27,1,
"U15137Z10","Modřice, Tyršova",49.130136,16.603469,"510",0,U15137N30,2,
"U15379Z1","Pohořelice, průmyslová zóna východ",48.989921,16.539353,"530",0,U15379N25,2,
"U15315Z1","Pohořelice, Brněnská",48.984843,16.529998,"530",0,U15315N24,2,
"U15317Z4","Pohořelice, náměstí",48.980709,16.521906,"530",0,U15317N23,2,2
"U15327Z2","Pohořelice, Městský úřad",48.976752,16.515348,"530",0,U15327N22,2,
"U15368Z2","Pohořelice, průmyslová zóna jih",48.971337,16.516835,"530",0,U15368N21,2,
"U15325Z2","Pohořelice, Velký Dvůr, rozcestí",48.96186,16.519344,"530",0,U15325N20,2,
"U15433Z1","Vlasatice, obecní úřad",48.9337,16.484063,"540",0,U15433N19,2,
"U15434Z1","Vlasatice, Troskotovická",48.931128,16.48354,"540",0,U15434N18,2,
"U15429Z1","Troskotovice, hřbitov",48.921882,16.440898,"540",0,U15429N17,2,
"U15431Z1","Troskotovice, škola",48.918878,16.436692,"540",0,U15431N16,2,
"U15430Z1","Troskotovice, prodejna",48.918698,16.43252,"540",0,U15430N15,2,
"U15552Z1","Jiřice u Miroslavi",48.920697,16.39138,"550",0,U15552N14,2,
"U15554Z1","Litobratřice, obecní úřad",48.888397,16.40314,"550",0,U15554N13,2,
"U15553Z1","Litobratřice, u konírny",48.883443,16.400735,"550",0,U15553N12,2,
"U15635Z1","Hrušovany nad Jevišovkou, STS",48.842928,16.40373,"560",0,U15635N11,2,
"U15632Z2","Hrušovany nad Jevišovkou, Lidická, VÚPP",48.831517,16.401898,"560",0,U15632N10,2,
"U15631Z1","Hrušovany nad Jevišovkou, lékárna",48.82892,16.399635,"560",0,U15631N9,2,
"U15634Z1","Hrušovany nad Jevišovkou, statek",48.817595,16.39771,"560",0,U15634N8,2,
"U15628Z1","Hrabětice, rozcestí",48.811255,16.39406,"560",0,U15628N7,2,
"U15637Z1","Hrušovany nad Jevišovkou, žel. st.",48.810462,16.383468,"560",0,U15637N6,2,
"U15639Z1","Šanov, požární zbrojnice",48.802093,16.374043,"560",0,U15639N5,2,
"U15640Z1","Šanov, u mostu",48.799232,16.386737,"560",0,U15640N4,2,
"U15627Z1","Hrabětice",48.796863,16.395113,"560",0,U15627N3,2,
"U15773Z1","Hevlín, cihelna",48.76153,16.383382,"570",0,U15773N2,2,
"U15775Z1","Hevlín, škola",48.75151,16.380257,"570",0,U15775N1,2,
"U15843Z1","Hevlín, LAA BOMBA - SHOPPING CENTER",48.732097,16.38276,"570",0,U15843N31,2,
"U15829Z1","Laa an der Thaya, Stadtplatz",48.720393,16.384622,"580",0,U15829N32,2,
"U15838Z1","Laa an der Thaya, Bahnhof",48.722881,16.402679,"580",0,U15838N33,2,
"U15839Z1","Laa an der Thaya, Therme",48.723047,16.395582,"580",0,U15839N34,2,
"U15839Z2","Laa an der Thaya, Therme",48.723047,16.395582,"580",0,U15839N34,2,
"U15838Z2","Laa an der Thaya, Bahnhof",48.723331,16.402208,"580",0,U15838N33,2,
"U15829Z2","Laa an der Thaya, Stadtplatz",48.720393,16.384622,"580",0,U15829N32,2,
"U15843Z11","Hevlín, LAA BOMBA - SHOPPING CENTER",48.732097,16.38276,"570",0,U15843N31,2,
"U1696Z8","ÚAN Zvonařka",49.185364,16.616151,"100",0,U1696N29,2,33
"U18009Z51","Znojmo, autobusové nádraží",48.851908,16.056983,"800",0,U18009N35,2,
"U18009Z1","Znojmo, autobusové nádraží",48.851886,16.057356,"800",0,U18009N35,2,5
"U1696Z11","ÚAN Zvonařka",49.185364,16.616151,"100",0,U1696N29,2,31
"U15714Z1","Mikulov, železniční stanice",48.801587,16.626658,"571",0,U15714N36,2,1
"U15709Z3","Mikulov, u parku",48.80268,16.634167,"571",0,U15709N37,2,1
"U15702Z2","Mikulov, Brněnská",48.812258,16.630495,"571",0,U15702N38,2,
"U15701Z2","Bavory, rozcestí",48.830925,16.612887,"552",0,U15701N39,2,
"U15545Z2","Dolní Dunajovice, rozcestí",48.851635,16.608425,"552",0,U15545N40,2,
"U15544Z3","Dolní Dunajovice, Jednota",48.855323,16.591977,"552",0,U15544N41,2,
"U15543Z2","Dolní Dunajovice, Hlavní",48.857637,16.58679,"552",0,U15543N42,2,
"U15565Z2","Brod nad Dyjí, obecní úřad",48.876282,16.536815,"540",0,U15565N43,2,
"U15428Z2","Pasohlávky, u kostela",48.90308,16.54164,"540",0,U15428N44,2,
"U15427Z2","Pasohlávky, rozcestí Ivaň",48.919619,16.556467,"540",0,U15427N45,2,
"U15318Z2","Pohořelice, Nová Ves",48.937338,16.528195,"540",0,U15318N46,2,
"U15317Z7","Pohořelice, náměstí",48.980878,16.522413,"530",0,U15317N23,2,1
"U1696Z10","ÚAN Zvonařka",49.185364,16.616151,"100",0,U1696N29,2,35
"U15317Z5","Pohořelice, náměstí",48.980709,16.521906,"530",0,U15317N23,2,2
"U15318Z1","Pohořelice, Nová Ves",48.936807,16.528422,"540",0,U15318N46,2,
"U15427Z1","Pasohlávky, rozcestí Ivaň",48.918193,16.556709,"540",0,U15427N45,2,
"U15428Z1","Pasohlávky, u kostela",48.90308,16.54164,"540",0,U15428N44,2,
"U15565Z1","Brod nad Dyjí, obecní úřad",48.876305,16.536722,"540",0,U15565N43,2,
"U15543Z1","Dolní Dunajovice, Hlavní",48.857567,16.586967,"552",0,U15543N42,2,
"U15544Z1","Dolní Dunajovice, Jednota",48.854737,16.592543,"552",0,U15544N41,2,
"U15545Z1","Dolní Dunajovice, rozcestí",48.850615,16.60982,"552",0,U15545N40,2,
"U15701Z1","Bavory, rozcestí",48.830593,16.612673,"552",0,U15701N39,2,
"U15702Z1","Mikulov, Brněnská",48.812088,16.630516,"571",0,U15702N38,2,
"U15703Z1","Mikulov, 22. dubna",48.805487,16.633496,"571",0,U15703N47,2,
"U15709Z1","Mikulov, u parku",48.802145,16.634375,"571",0,U15709N37,2,4
"U15714Z51","Mikulov, železniční stanice",48.80216,16.62617,"571",0,U15714N36,2,
"U15427Z3","Pasohlávky, rozcestí Ivaň",48.918491,16.558356,"540",0,U15427N45,2,
"U15435Z1","Pasohlávky, Aqualand Moravia",48.905026,16.575559,"540",0,U15435N48,2,
"U15435Z2","Pasohlávky, Aqualand Moravia",48.904837,16.575621,"540",0,U15435N48,2,
"U14012Z1","Kubšice, křižovatka",49.001943,16.408638,"449",0,U14012N49,2,
"U14018Z1","Olbramovice, prodejna",48.989877,16.395692,"449",0,U14018N50,2,
"U14019Z1","Olbramovice, restaurace",48.984167,16.400743,"449",0,U14019N51,2,
"U14022Z1","Šumice, škola",48.99172,16.437268,"449",0,U14022N52,2,
"U14014Z1","Loděnice, křižovatka Šumická",49.011128,16.458595,"449",0,U14014N53,2,
"U14015Z1","Loděnice, obecní úřad",49.011475,16.46323,"449",0,U14015N54,2,
"U14016Z1","Loděnice, škola",49.011772,16.468037,"449",0,U14016N55,2,
"U15312Z1","Malešovice, obecní úřad",49.02291,16.500288,"530",0,U15312N56,2,
"U15314Z1","Odrovice, bytovky",49.011845,16.506925,"530",0,U15314N57,2,
"U15313Z1","Odrovice",49.007024,16.51119,"530",0,U15313N58,2,
"U15308Z1","Cvrčovice",48.996642,16.512835,"530",0,U15308N59,2,
"U15309Z1","Cvrčovice, učiliště",48.990818,16.516293,"530",0,U15309N60,2,
"U15323Z1","Pohořelice, Tyršova",48.9836,16.51948,"530",0,U15323N61,2,
"U15317Z1","Pohořelice, náměstí",48.980751,16.522478,"530",0,U15317N23,2,3
"U1435Z1","Novomoravanská",49.153104,16.600346,"101",0,U1435N62,2,
"U1396Z3","Moravanské lány",49.149585,16.601004,"101",0,U1396N63,2,
"U1393Z3","Moravanská",49.142887,16.602097,"101",0,U1393N64,2,
"U15168Z1","Rajhrad, městský úřad",49.089663,16.603985,"510",0,U15168N65,2,
"U15181Z5","Rajhrad, železniční stanice",49.083879,16.605011,"510",0,U15181N66,2,6
"U15166Z1","Rajhrad, stará pošta",49.087759,16.591479,"510",0,U15166N67,2,
"U15182Z1","Rajhrad, GEIS",49.08538,16.582,"510",0,U15182N68,2,
"U15210Z1","Syrovice",49.080328,16.548173,"520",0,U15210N69,2,
"U15242Z2","Syrovice, logistický areál",49.075933,16.55606,"520",0,U15242N70,2,
"U15212Z1","Syrovice, Sobotovická",49.077625,16.545298,"520",0,U15212N71,2,
"U15209Z1","Sobotovice, transformátor",49.061401,16.552707,"520",0,U15209N72,2,
"U15208Z3","Sobotovice",49.059067,16.558138,"520",0,U15208N73,2,
"U15203Z3","Ledce, obecní úřad",49.052175,16.555735,"520",0,U15203N74,2,
"U15204Z3","Ledce, rozcestí",49.04971,16.565488,"520",0,U15204N75,2,
"U15255Z2","Medlov, seniorcentrum",49.035713,16.528477,"520",0,U15255N76,2,
"U15205Z1","Medlov",49.034503,16.522033,"520",0,U15205N77,2,
"U15234Z2","Medlov, Kafilerie",49.017717,16.534908,"520",0,U15234N78,2,
"U15321Z2","Pohořelice, Smolín",49.007298,16.540125,"530",0,U15321N79,2,
"U15317Z51","Pohořelice, náměstí",48.98068,16.522099,"530",0,U15317N23,2,
"U15317Z8","Pohořelice, náměstí",48.980751,16.522478,"530",0,U15317N23,2,3
"U15321Z1","Pohořelice, Smolín",49.007295,16.54034,"530",0,U15321N79,2,
"U15234Z1","Medlov, Kafilerie",49.017847,16.534967,"520",0,U15234N78,2,
"U15255Z1","Medlov, seniorcentrum",49.035709,16.528745,"520",0,U15255N76,2,
"U15204Z4","Ledce, rozcestí",49.04988,16.565693,"520",0,U15204N75,2,
"U15203Z4","Ledce, obecní úřad",49.052175,16.555735,"520",0,U15203N74,2,
"U15208Z4","Sobotovice",49.059145,16.558115,"520",0,U15208N73,2,
"U15209Z2","Sobotovice, transformátor",49.061625,16.552708,"520",0,U15209N72,2,
"U15212Z2","Syrovice, Sobotovická",49.077625,16.545298,"520",0,U15212N71,2,
"U15210Z2","Syrovice",49.08029,16.548905,"520",0,U15210N69,2,
"U15182Z2","Rajhrad, GEIS",49.085595,16.583357,"510",0,U15182N68,2,
"U15166Z2","Rajhrad, stará pošta",49.087794,16.591688,"510",0,U15166N67,2,
"U15181Z7","Rajhrad, železniční stanice",49.084495,16.605152,"510",0,U15181N66,2,1
"U15168Z2","Rajhrad, městský úřad",49.089963,16.60397,"510",0,U15168N65,2,
"U1393Z4","Moravanská",49.142614,16.603006,"101",0,U1393N64,1,
"U1396Z4","Moravanské lány",49.149305,16.601813,"101",0,U1396N63,2,
"U1466Z4","Ořechovská",49.156124,16.600676,"101",0,U1466N80,1,
"U1703Z5","Ústřední hřbitov",49.171604,16.597316,"101",0,U1703N27,1,
"U18214Z2","Lechovice, obecní úřad",48.872568,16.221965,"820",0,U18214N81,2,
"U18215Z2","Lechovice, zámek",48.875885,16.236996,"820",0,U18215N82,2,
"U18217Z2","Oleksovice, rozcestí",48.887523,16.260499,"820",0,U18217N83,2,
"U15557Z2","Mackovice, rozcestí",48.901053,16.294054,"459",0,U15557N84,2,
"U14557Z2","Miroslav, Kašenec, státní silnice",48.91853,16.33381,"459",0,U14557N85,2,
"U14552Z2","Miroslav, rozcestí",48.933616,16.362524,"459",0,U14552N86,2,1
"U14024Z2","Trnové Pole, rozcestí",48.955186,16.413722,"449",0,U14024N87,2,
"U14011Z2","Branišovice, státní silnice",48.959163,16.430035,"449",0,U14011N88,2,
"U15320Z2","Pohořelice, obchodní akademie",48.978585,16.505427,"530",0,U15320N89,2,
"U15317Z2","Pohořelice, náměstí",48.980751,16.522478,"530",0,U15317N23,2,3
"U15323Z2","Pohořelice, Tyršova",48.98355,16.519545,"530",0,U15323N61,2,
"U15309Z2","Cvrčovice, učiliště",48.990827,16.516415,"530",0,U15309N60,2,
"U15308Z2","Cvrčovice",48.996653,16.512905,"530",0,U15308N59,2,
"U15313Z2","Odrovice",49.00822,16.510819,"530",0,U15313N58,2,
"U15314Z2","Odrovice, bytovky",49.011285,16.507306,"530",0,U15314N57,2,
"U15312Z2","Malešovice, obecní úřad",49.022828,16.500475,"530",0,U15312N56,2,
"U14016Z2","Loděnice, škola",49.011772,16.468037,"449",0,U14016N55,2,
"U14015Z2","Loděnice, obecní úřad",49.011503,16.463197,"449",0,U14015N54,2,
"U14014Z2","Loděnice, křižovatka Šumická",49.011128,16.458487,"449",0,U14014N53,2,
"U14022Z2","Šumice, škola",48.991798,16.437273,"449",0,U14022N52,2,
"U14019Z2","Olbramovice, restaurace",48.984233,16.400785,"449",0,U14019N51,2,
"U14018Z2","Olbramovice, prodejna",48.98989,16.39586,"449",0,U14018N50,2,
"U14012Z2","Kubšice, křižovatka",49.002052,16.408448,"449",0,U14012N49,2,
"U14026Z2","Vedrovice, u lípy",49.021738,16.380793,"449",0,U14026N90,2,
"U14025Z2","Vedrovice, obecní úřad",49.01993,16.376853,"449",0,U14025N91,2,
"U16608Z2","Kyjov, aut. st.",49.006785,17.124327,"675",0,U16608N92,2,4
"U16612Z2","Kyjov, nemocnice",49.007061,17.111463,"675",0,U16612N93,2,
"U16622Z2","Strážovice",49.0093,17.047132,"662",0,U16622N94,2,
"U16635Z2","Stavěšice",49.002007,17.02977,"662",0,U16635N95,2,
"U16529Z2","Nenkovice, škola",49.004683,17.01574,"662",0,U16529N96,2,
"U16528Z2","Nenkovice, obecní úřad",49.00398,17.011083,"662",0,U16528N97,2,
"U16530Z2","Nenkovice, u kašny",49.001835,17.008144,"662",0,U16530N98,2,
"U16534Z2","Želetice",49.012481,17.009044,"662",0,U16534N99,2,
"U16533Z2","Želetice, statek",49.015307,17.006765,"662",0,U16533N100,2,
"U16527Z2","Dražůvky",49.031967,17.020073,"652",0,U16527N101,2,
"U16525Z2","Archlebov",49.043193,17.003877,"652",0,U16525N102,2,
"U16449Z2","Žarošice",49.040472,16.966415,"652",0,U16449N103,2,
"U16448Z2","Žarošice, škola",49.039435,16.9616,"652",0,U16448N104,2,
"U16444Z2","Žarošice, Silničná, rozcestí Uhřice",49.051834,16.95308,"652",0,U16444N105,2,
"U16446Z2","Žarošice, Zdravá Voda",49.065466,16.945145,"643",0,U16446N106,2,
"U16445Z2","Žarošice, Těšanka",49.079165,16.936537,"643",0,U16445N107,2,
"U16336Z2","Heršpice, Bílý Vlk",49.095822,16.90958,"635",0,U16336N108,2,
"U16337Z2","Nížkovice, rozcestí",49.11172,16.896114,"635",0,U16337N109,2,
"U16332Z2","Slavkov u Brna, rozcestí k žel. st.",49.14503,16.877933,"635",0,U16332N110,2,
"U16328Z2","Slavkov u Brna, aut. st.",49.149057,16.876562,"635",0,U16328N111,2,2
"U16334Z2","Velešovice, rozc.",49.167572,16.84187,"635",0,U16334N112,2,
"U16206Z2","Holubice, nadjezd",49.178267,16.819095,"620",0,U16206N113,2,
"U1677Z2","Tržní",49.189407,16.629972,"100",0,U1677N114,1,
"U1696Z6","ÚAN Zvonařka",49.185364,16.616151,"100",0,U1696N29,2,29
"U1677Z3","Tržní",49.189342,16.630314,"100",0,U1677N114,1,
"U16206Z1","Holubice, nadjezd",49.178081,16.819173,"620",0,U16206N113,2,
"U16334Z1","Velešovice, rozc.",49.166882,16.842802,"635",0,U16334N112,2,
"U16328Z3","Slavkov u Brna, aut. st.",49.149057,16.876562,"635",0,U16328N111,2,3
"U16332Z1","Slavkov u Brna, rozcestí k žel. st.",49.143955,16.878297,"635",0,U16332N110,2,
"U16337Z1","Nížkovice, rozcestí",49.11212,16.895599,"635",0,U16337N109,2,
"U16336Z1","Heršpice, Bílý Vlk",49.095813,16.909428,"635",0,U16336N108,2,
"U16445Z1","Žarošice, Těšanka",49.079005,16.936517,"643",0,U16445N107,2,
"U16446Z1","Žarošice, Zdravá Voda",49.065466,16.945145,"643",0,U16446N106,2,
"U16444Z1","Žarošice, Silničná, rozcestí Uhřice",49.051812,16.953006,"652",0,U16444N105,2,
"U16448Z1","Žarošice, škola",49.039337,16.96142,"652",0,U16448N104,2,
"U16449Z1","Žarošice",49.040617,16.967482,"652",0,U16449N103,2,
"U16525Z1","Archlebov",49.043113,17.00413,"652",0,U16525N102,2,
"U16527Z1","Dražůvky",49.031967,17.020073,"652",0,U16527N101,2,
"U16533Z1","Želetice, statek",49.01512,17.006987,"662",0,U16533N100,2,
"U16534Z1","Želetice",49.012693,17.009444,"662",0,U16534N99,2,
"U16530Z1","Nenkovice, u kašny",49.001724,17.007864,"662",0,U16530N98,2,
"U16528Z1","Nenkovice, obecní úřad",49.004197,17.011395,"662",0,U16528N97,2,
"U16529Z1","Nenkovice, škola",49.004607,17.015563,"662",0,U16529N96,2,
"U16635Z1","Stavěšice",49.001868,17.029877,"662",0,U16635N95,2,
"U16622Z1","Strážovice",49.0093,17.047132,"662",0,U16622N94,2,
"U16612Z1","Kyjov, nemocnice",49.006845,17.11013,"675",0,U16612N93,2,
"U16608Z16","Kyjov, aut. st.",49.006873,17.123912,"675",0,U16608N92,2,
"U16608Z8","Kyjov, aut. st.",49.006608,17.124285,"675",0,U16608N92,2,7
"U16817Z1","Vlkoš",48.990855,17.16172,"685",0,U16817N115,2,
"U16819Z2","Vlkoš, škola",48.985362,17.15911,"685",0,U16819N116,2,
"U16805Z2","Skoronice",48.98157,17.153808,"685",0,U16805N117,2,
"U16801Z2","Milotice, dvůr",48.965403,17.14059,"685",0,U16801N118,2,
"U16802Z2","Milotice, náves",48.954121,17.142692,"685",0,U16802N119,2,
"U16804Z2","Milotice, škola",48.954267,17.152105,"685",0,U16804N120,2,
"U19161Z2","Vacenovice",48.945252,17.173992,"917",0,U19161N121,2,
"U19162Z2","Vacenovice, stadion",48.939803,17.170687,"917",0,U19162N122,2,
"U19155Z2","Ratíškovice, drůbežárna",48.931957,17.1689,"917",0,U19155N123,2,
"U19160Z2","Ratíškovice, u Svatého Jána",48.923645,17.168112,"917",0,U19160N124,2,
"U19154Z4","Ratíškovice",48.920947,17.161482,"917",0,U19154N125,2,
"U19159Z2","Ratíškovice, U Hájenky",48.914993,17.160449,"917",0,U19159N126,2,
"U19009Z2","Hodonín, Pánov",48.882564,17.147405,"900",0,U19009N127,2,
"U19003Z2","Hodonín, cihelna",48.871897,17.146337,"900",0,U19003N128,2,
"U19004Z2","Hodonín, Černý most",48.866435,17.142004,"900",0,U19004N129,2,
"U19007Z2","Hodonín, lázně",48.86267,17.140467,"900",0,U19007N130,2,
"U19011Z2","Hodonín, restaurace Morava",48.855442,17.133451,"900",0,U19011N131,2,
"U19001Z50","Hodonín, autobusové nádraží",48.853643,17.121537,"900",0,U19001N132,2,
"U19001Z1","Hodonín, autobusové nádraží",48.854398,17.121874,"900",0,U19001N132,2,13
"U19002Z2","Hodonín, Brněnská",48.862608,17.118852,"900",0,U19002N133,2,
"U19012Z2","Hodonín, STS",48.871603,17.116652,"900",0,U19012N134,2,
"U19015Z2","Hodonín, Zbrod",48.887661,17.063292,"900",0,U19015N135,2,
"U19103Z2","Mutěnice, křižovatka",48.904657,17.028645,"910",0,U19103N136,2,
"U19104Z2","Mutěnice, škola",48.90765,17.018955,"910",0,U19104N137,2,
"U16551Z2","Hovorany, čerpací stanice",48.942828,16.985477,"660",0,U16551N138,2,
"U16554Z2","Hovorany, rozcestí",48.948843,16.979543,"660",0,U16554N139,2,
"U16545Z2","Čejč, náměstí",48.946227,16.966451,"660",0,U16545N140,2,4
"U16462Z2","Terezín",48.956778,16.940897,"650",0,U16462N141,2,
"U16460Z2","Krumvíř, statek",48.981398,16.923568,"640",0,U16460N142,2,
"U16461Z2","Krumvíř, železniční stanice",48.985013,16.917217,"640",0,U16461N143,2,
"U16457Z2","Krumvíř, obecní úřad",48.98897,16.91042,"640",0,U16457N144,2,
"U16466Z2","Krumvíř, supermarket",48.993555,16.893235,"640",0,U16466N145,2,
"U16343Z2","Klobouky u Brna, Nádražní",48.994572,16.878598,"640",0,U16343N146,2,
"U16348Z2","Klobouky u Brna, samoobsluha",48.995153,16.866834,"640",0,U16348N147,2,
"U16345Z2","Klobouky u Brna, náměstí",48.99538,16.85736,"640",0,U16345N148,2,1
"U16347Z2","Klobouky u Brna, rozcestí",49.000636,16.862186,"640",0,U16347N149,2,
"U16344Z2","Klobouky u Brna, Martinice, rozcestí",49.013667,16.828293,"640",0,U16344N150,2,
"U15226Z2","Těšany",49.039503,16.770935,"525",0,U15226N151,2,
"U15227Z2","Těšany, u váhy",49.041007,16.765215,"525",0,U15227N152,2,
"U15223Z2","Moutnice, střed",49.049157,16.73739,"525",0,U15223N153,2,
"U15232Z2","Moutnice, Rozařín",49.05312,16.737877,"525",0,U15232N154,2,
"U15167Z1","Měnín, rozcestí",49.087318,16.716476,"610",0,U15167N155,2,
"U16138Z4","Telnice",49.1024,16.717463,"610",0,U16138N156,2,
"U16147Z2","Sokolnice, rozvodna",49.114771,16.705095,"610",0,U16147N157,2,
"U1681Z4","Tuřany, smyčka",49.142326,16.666375,"101",0,U1681N158,1,
"U1131Z2","Hanácká",49.146706,16.667371,"101",0,U1131N159,1,
"U1191Z2","Ivanovické náměstí",49.153629,16.653755,"101",0,U1191N160,1,
"U1533Z2","Ráječek",49.161397,16.637387,"101",0,U1533N161,2,
"U1361Z4","Mariánské náměstí",49.177094,16.621935,"101",0,U1361N162,1,
"U1266Z4","Konopná",49.179332,16.621811,"100",0,U1266N163,1,
"U1696Z21","ÚAN Zvonařka",49.185364,16.616151,"100",0,U1696N29,2,
"U16608Z12","Kyjov, aut. st.",49.006598,17.124015,"675",0,U16608N92,2,10
"U16820Z1","Vlkoš, Tesko",48.987033,17.172742,"685",0,U16820N164,2,
"U16823Z1","Vracov, Slokov",48.981753,17.20729,"685",0,U16823N165,2,
"U16822Z1","Vracov, obecní úřad",48.97962,17.219452,"685",0,U16822N166,2,
"U16903Z1","Bzenec, Nový Svět",48.97298,17.251258,"695",0,U16903N167,2,
"U16901Z1","Bzenec, náměstí",48.97278,17.267467,"695",0,U16901N168,2,
"U16907Z1","Bzenec, ZŠ",48.970447,17.279397,"695",0,U16907N169,2,
"U16900Z1","Bzenec, Doubrava",48.961827,17.286975,"695",0,U16900N170,2,
"U16905Z1","Bzenec, Přívoz, železniční stanice",48.936445,17.28984,"695",0,U16905N171,2,
"U16917Z1","Bzenec, Přívoz",48.935987,17.294041,"695",0,U16917N172,2,
"U19204Z1","Strážnice, ATC",48.909397,17.310663,"925",0,U19204N173,2,
"U19207Z1","Strážnice, náměstí 17. listopadu",48.90244,17.318012,"925",0,U19207N174,2,
"U19205Z51","Strážnice, aut. st.",48.898322,17.315938,"925",0,U19205N175,2,
"U19205Z2","Strážnice, aut. st.",48.898393,17.315802,"925",0,U19205N175,2,7
"U19207Z2","Strážnice, náměstí 17. listopadu",48.902415,17.318367,"925",0,U19207N174,2,
"U19204Z2","Strážnice, ATC",48.909397,17.310663,"925",0,U19204N173,2,
"U16917Z2","Bzenec, Přívoz",48.936826,17.29381,"695",0,U16917N172,2,
"U16900Z2","Bzenec, Doubrava",48.961533,17.287165,"695",0,U16900N170,2,
"U16907Z2","Bzenec, ZŠ",48.970537,17.279883,"695",0,U16907N169,2,
"U16901Z2","Bzenec, náměstí",48.973247,17.265269,"695",0,U16901N168,2,
"U16903Z2","Bzenec, Nový Svět",48.972955,17.251683,"695",0,U16903N167,2,
"U16822Z2","Vracov, obecní úřad",48.979768,17.21934,"685",0,U16822N166,2,
"U16823Z2","Vracov, Slokov",48.98178,17.208207,"685",0,U16823N165,2,
"U16820Z2","Vlkoš, Tesko",48.987175,17.172433,"685",0,U16820N164,2,
"U16817Z2","Vlkoš",48.990744,17.162083,"685",0,U16817N115,2,
"U16439Z1","Násedlovice",49.011075,16.95703,"652",0,U16439N176,2,
"U16438Z1","Násedlovice, u hřiště",49.009217,16.95822,"652",0,U16438N177,2,
"U16437Z1","Násedlovice, mlýn",49.007262,16.966958,"652",0,U16437N178,2,
"U16608Z1","Kyjov, aut. st.",49.006785,17.124327,"675",0,U16608N92,2,6
"U16437Z2","Násedlovice, mlýn",49.007317,16.966767,"652",0,U16437N178,2,
"U16438Z2","Násedlovice, u hřiště",49.00918,16.958217,"652",0,U16438N177,2,
"U16439Z2","Násedlovice",49.012059,16.958993,"652",0,U16439N176,2,
"U16608Z14","Kyjov, aut. st.",49.006415,17.124242,"675",0,U16608N92,2,5
"U16619Z2","Sobůlky, škola",49.017682,17.080587,"662",0,U16619N179,2,
"U16620Z2","Sobůlky",49.02127,17.078505,"662",0,U16620N180,2,
"U16655Z1","Sobůlky, hřbitov",49.02425,17.071784,"662",0,U16655N181,2,
"U16531Z2","Věteřov",49.028368,17.056237,"662",0,U16531N182,2,
"U16526Z2","Dražůvky, rozcestí",49.039952,17.022837,"652",0,U16526N183,2,
"U16608Z15","Kyjov, aut. st.",49.006463,17.124008,"675",0,U16608N92,2,9
"U16639Z1","Kyjov, nemocnice, křižovatka",49.00725,17.113458,"675",0,U16639N184,2,
"U16811Z1","Svatobořice-Mistřín, textilka",48.991854,17.101184,"685",0,U16811N185,2,
"U16809Z1","Svatobořice-Mistřín, restaurace",48.98316,17.09427,"685",0,U16809N186,2,
"U16806Z1","Svatobořice-Mistřín, kulturní dům",48.977759,17.08999,"685",0,U16806N187,2,
"U16810Z1","Svatobořice-Mistřín, škola",48.973884,17.08519,"685",0,U16810N188,2,
"U16807Z3","Svatobořice-Mistřín, Mistřín",48.97119,17.081982,"685",0,U16807N189,2,
"U16808Z1","Svatobořice-Mistřín, mlýn",48.962494,17.088993,"685",0,U16808N190,2,
"U16803Z1","Milotice, rozcestí",48.948178,17.092997,"685",0,U16803N191,2,
"U19140Z1","Dubňany, kemp Josef",48.930154,17.098098,"917",0,U19140N192,2,
"U19146Z2","Dubňany, obchodní dům",48.918881,17.100025,"917",0,U19146N193,2,
"U19151Z2","Dubňany, u mlýna",48.915052,17.09891,"917",0,U19151N194,2,
"U19149Z1","Dubňany, škola",48.911238,17.100547,"917",0,U19149N195,2,
"U19012Z1","Hodonín, STS",48.870733,17.116435,"900",0,U19012N134,2,
"U19002Z1","Hodonín, Brněnská",48.862476,17.118758,"900",0,U19002N133,2,
"U19001Z16","Hodonín, autobusové nádraží",48.854151,17.122164,"900",0,U19001N132,2,1
"U19149Z2","Dubňany, škola",48.910813,17.100845,"917",0,U19149N195,2,
"U19151Z1","Dubňany, u mlýna",48.915073,17.09902,"917",0,U19151N194,2,
"U19146Z1","Dubňany, obchodní dům",48.918293,17.099783,"917",0,U19146N193,2,
"U19140Z2","Dubňany, kemp Josef",48.93052,17.09804,"917",0,U19140N192,2,
"U16803Z2","Milotice, rozcestí",48.948136,17.093111,"685",0,U16803N191,2,
"U16808Z2","Svatobořice-Mistřín, mlýn",48.96263,17.089041,"685",0,U16808N190,2,
"U16807Z4","Svatobořice-Mistřín, Mistřín",48.971639,17.081549,"685",0,U16807N189,2,
"U16810Z2","Svatobořice-Mistřín, škola",48.974187,17.086079,"685",0,U16810N188,2,
"U16806Z2","Svatobořice-Mistřín, kulturní dům",48.977932,17.090462,"685",0,U16806N187,2,
"U16809Z2","Svatobořice-Mistřín, restaurace",48.983528,17.094782,"685",0,U16809N186,2,
"U16811Z2","Svatobořice-Mistřín, textilka",48.991569,17.101103,"685",0,U16811N185,2,
"U16639Z2","Kyjov, nemocnice, křižovatka",49.007137,17.113345,"675",0,U16639N184,2,
"U16608Z17","Kyjov, aut. st.",49.006463,17.124008,"675",0,U16608N92,2,2
"U16527Z3","Dražůvky",49.031967,17.020073,"652",0,U16527N101,2,
"U16526Z1","Dražůvky, rozcestí",49.039815,17.022695,"652",0,U16526N183,2,
"U16531Z1","Věteřov",49.02866,17.055782,"662",0,U16531N182,2,
"U16620Z1","Sobůlky",49.021408,17.078633,"662",0,U16620N180,2,
"U16619Z1","Sobůlky, škola",49.017792,17.080708,"662",0,U16619N179,2,
"U17423Z7","Vyškov, Autobusové nádraží",49.275942,16.991855,"740",0,U17423N196,2,1
"U17429Z2","Vyškov, garáže ČSAD",49.270982,16.988643,"740",0,U17429N197,2,
"U17435Z2","Vyškov, Nouzka",49.266523,16.980263,"740",0,U17435N198,2,
"U17428Z2","Vyškov, Drnovská Bioveta",49.25374,16.95539,"740",0,U17428N199,2,
"U17328Z2","Luleč, rozcestí",49.246772,16.941783,"730",0,U17328N200,2,
"U17344Z2","Tučapy, rozcestí",49.227053,16.915262,"730",0,U17344N201,2,
"U17311Z4","Komořany, EDP",49.219687,16.904328,"730",0,U17311N202,2,
"U17331Z2","Rousínov, Čechyně, rozcestí",49.207575,16.892772,"730",0,U17331N203,2,
"U17335Z3","Rousínov, autobusová stanice",49.203074,16.884769,"730",0,U17335N204,2,1
"U1696Z5","ÚAN Zvonařka",49.185364,16.616151,"100",0,U1696N29,2,28
"U17335Z2","Rousínov, autobusová stanice",49.20291,16.88497,"730",0,U17335N204,2,5
"U17331Z1","Rousínov, Čechyně, rozcestí",49.207062,16.891572,"730",0,U17331N203,2,
"U17311Z3","Komořany, EDP",49.220008,16.905058,"730",0,U17311N202,2,
"U17344Z1","Tučapy, rozcestí",49.227308,16.915917,"730",0,U17344N201,2,
"U17328Z1","Luleč, rozcestí",49.248113,16.944733,"730",0,U17328N200,2,
"U17428Z1","Vyškov, Drnovská Bioveta",49.254302,16.95682,"740",0,U17428N199,2,
"U17435Z1","Vyškov, Nouzka",49.266527,16.980512,"740",0,U17435N198,2,
"U17429Z1","Vyškov, garáže ČSAD",49.271332,16.989108,"740",0,U17429N197,2,
"U17423Z21","Vyškov, Autobusové nádraží",49.275819,16.992078,"740",0,U17423N196,2,
"U17335Z6","Rousínov, autobusová stanice",49.202819,16.885074,"730",0,U17335N204,2,7
"U17343Z1","Tučapy, obecní úřad",49.232287,16.917902,"730",0,U17343N205,2,
"U17317Z1","Nemojany",49.246498,16.915268,"730",0,U17317N206,2,
"U17316Z1","Luleč, rozc. k žel. st.",49.250822,16.921027,"730",0,U17316N207,2,
"U17315Z1","Luleč, obecní úřad",49.253993,16.929762,"730",0,U17315N208,2,
"U17314Z1","Luleč, kamenolom",49.261913,16.937098,"730",0,U17314N209,2,
"U17305Z1","Drnovice, Na vrchu",49.270722,16.950341,"730",0,U17305N210,2,
"U17304Z2","Drnovice",49.276472,16.952117,"730",0,U17304N211,2,
"U17434Z2","Vyškov, nemocnice",49.276242,16.98279,"740",0,U17434N212,2,
"U17423Z17","Vyškov, Autobusové nádraží",49.275723,16.991653,"740",0,U17423N196,2,7
"U17434Z1","Vyškov, nemocnice",49.276367,16.981935,"740",0,U17434N212,2,
"U17304Z1","Drnovice",49.276625,16.952048,"730",0,U17304N211,2,
"U17305Z2","Drnovice, Na vrchu",49.27033,16.948092,"730",0,U17305N210,2,
"U17314Z2","Luleč, kamenolom",49.26186,16.936918,"730",0,U17314N209,2,
"U17315Z2","Luleč, obecní úřad",49.253993,16.929762,"730",0,U17315N208,2,
"U17316Z2","Luleč, rozc. k žel. st.",49.250728,16.920762,"730",0,U17316N207,2,
"U17317Z2","Nemojany",49.246447,16.915287,"730",0,U17317N206,2,
"U17343Z2","Tučapy, obecní úřad",49.232287,16.917902,"730",0,U17343N205,2,
"U17335Z21","Rousínov, autobusová stanice",49.203043,16.885015,"730",0,U17335N204,2,
"U1696Z4","ÚAN Zvonařka",49.185364,16.616151,"100",0,U1696N29,2,30
"U1068Z3","Černovičky",49.183143,16.669108,"101",0,U1068N213,1,
"U1577Z5","Slatina, sídliště",49.182195,16.690725,"101",0,U1577N214,1,
"U16130Z1","Šlapanice, Bedřichovice, rozc.",49.182882,16.723572,"610",0,U16130N215,2,
"U16105Z1","Jiříkovice, motorest Rohlenka",49.183436,16.761042,"610",0,U16105N216,2,
"U16205Z1","Holubice, kruh",49.184495,16.799497,"620",0,U16205N217,2,
"U16227Z1","Holubice, GLP Park",49.188149,16.810898,"620",0,U16227N218,2,
"U16210Z1","Kovalovice, Stará pošta",49.185018,16.826655,"620",0,U16210N219,2,
"U17348Z2","Velešovice, u mostu",49.186552,16.841008,"730",0,U17348N220,2,
"U17345Z1","Velešovice",49.180494,16.847836,"730",0,U17345N221,2,
"U17348Z1","Velešovice, u mostu",49.186447,16.84118,"730",0,U17348N220,2,
"U17337Z1","Rousínov, rozc. k žel. st.",49.200012,16.873039,"730",0,U17337N222,2,
"U17335Z1","Rousínov, autobusová stanice",49.202947,16.88534,"730",0,U17335N204,2,8
"U17423Z2","Vyškov, Autobusové nádraží",49.275878,16.99145,"740",0,U17423N196,2,2
"U17446Z1","Vyškov, železniční stanice",49.278115,16.992202,"740",0,U17446N223,2,
"U17427Z1","Vyškov, Dělnický dům",49.280365,16.995232,"740",0,U17427N224,2,
"U17440Z1","Vyškov, Rostex",49.283558,16.990612,"740",0,U17440N225,2,
"U17431Z1","Vyškov, hotel Dukla",49.28524,16.986955,"740",0,U17431N226,2,
"U17426Z1","Vyškov, Dědice, u hřbitova",49.28952,16.981548,"740",0,U17426N227,2,
"U17424Z1","Vyškov, Dědice, nám. Svobody",49.29417,16.979015,"740",0,U17424N228,2,
"U17445Z1","Vyškov, Dědice, kasárna",49.300943,16.98151,"740",0,U17445N229,2,
"U17425Z1","Vyškov, Dědice, rozc. Opatovice",49.29812,16.973313,"740",0,U17425N230,2,
"U17430Z1","Vyškov, Hamiltony",49.305332,16.969203,"740",0,U17430N231,2,
"U17433Z1","Vyškov, Lhota, u školy",49.309775,16.955875,"740",0,U17433N232,2,
"U17432Z1","Vyškov, Lhota",49.311585,16.948827,"740",0,U17432N233,2,
"U17439Z1","Vyškov, Pařezovice, rozcestí",49.320457,16.935295,"740",0,U17439N234,2,
"U17441Z1","Vyškov, Rychtářov",49.327197,16.919003,"740",0,U17441N235,2,
"U17443Z1","Vyškov, Rychtářov, točna",49.330324,16.912508,"740",0,U17443N236,2,
"U17443Z2","Vyškov, Rychtářov, točna",49.330324,16.912508,"740",0,U17443N236,2,
"U17441Z2","Vyškov, Rychtářov",49.327197,16.919003,"740",0,U17441N235,2,
"U17439Z2","Vyškov, Pařezovice, rozcestí",49.320483,16.93506,"740",0,U17439N234,2,
"U17432Z2","Vyškov, Lhota",49.311497,16.948407,"740",0,U17432N233,2,
"U17433Z2","Vyškov, Lhota, u školy",49.309547,16.956648,"740",0,U17433N232,2,
"U17430Z2","Vyškov, Hamiltony",49.305315,16.969123,"740",0,U17430N231,2,
"U17425Z2","Vyškov, Dědice, rozc. Opatovice",49.298063,16.973245,"740",0,U17425N230,2,
"U17424Z2","Vyškov, Dědice, nám. Svobody",49.293627,16.97917,"740",0,U17424N228,2,
"U17426Z2","Vyškov, Dědice, u hřbitova",49.288997,16.981807,"740",0,U17426N227,2,
"U17431Z2","Vyškov, hotel Dukla",49.285237,16.986958,"740",0,U17431N226,2,
"U17440Z2","Vyškov, Rostex",49.283392,16.99069,"740",0,U17440N225,2,
"U17427Z2","Vyškov, Dělnický dům",49.280487,16.994993,"740",0,U17427N224,2,
"U17446Z2","Vyškov, železniční stanice",49.278112,16.992207,"740",0,U17446N223,2,
"U17442Z1","Vyškov, Rychtářov, Rohlina",49.331723,16.910468,"740",0,U17442N237,2,
"U17447Z1","Studnice, Doubrava",49.359083,16.887012,"745",0,U17447N238,2,
"U12412Z1","Studnice",49.375665,16.879715,"240",0,U12412N239,2,
"U12413Z1","Studnice, Odrůvky",49.394393,16.882133,"240",0,U12413N240,2,
"U12405Z1","Nové Sady",49.408905,16.901903,"240",0,U12405N241,2,
"U12405Z2","Nové Sady",49.408905,16.901903,"240",0,U12405N241,2,
"U12413Z2","Studnice, Odrůvky",49.39438,16.882065,"240",0,U12413N240,2,
"U12412Z2","Studnice",49.375665,16.879715,"240",0,U12412N239,2,
"U17447Z2","Studnice, Doubrava",49.359083,16.887005,"745",0,U17447N238,2,
"U17438Z1","Vyškov, Opatovice, u mlýna",49.300165,16.957503,"740",0,U17438N242,2,
"U17437Z1","Vyškov, Opatovice, náves",49.302252,16.954362,"740",0,U17437N243,2,
"U17436Z1","Vyškov, Opatovice, bytovky",49.300683,16.958572,"740",0,U17436N244,2,
"U17423Z14","Vyškov, Autobusové nádraží",49.275723,16.991653,"740",0,U17423N196,2,7
"U17335Z4","Rousínov, autobusová stanice",49.203115,16.885139,"730",0,U17335N204,2,4
"U17337Z2","Rousínov, rozc. k žel. st.",49.198975,16.870335,"730",0,U17337N222,2,
"U17346Z2","Velešovice, obecní úřad",49.179537,16.847213,"730",0,U17346N245,2,
"U17347Z2","Velešovice, u hřiště",49.175273,16.846278,"730",0,U17347N246,2,
"U16331Z1","Slavkov u Brna, poliklinika",49.156228,16.87922,"635",0,U16331N247,2,
"U16328Z8","Slavkov u Brna, aut. st.",49.148898,16.876145,"635",0,U16328N111,2,8
"U16328Z10","Slavkov u Brna, aut. st.",49.148898,16.876145,"635",0,U16328N111,2,6
"U17347Z1","Velešovice, u hřiště",49.175896,16.846738,"730",0,U17347N246,2,
"U17346Z1","Velešovice, obecní úřad",49.179481,16.847315,"730",0,U17346N245,2,
"U17335Z9","Rousínov, autobusová stanice",49.203043,16.885015,"730",0,U17335N204,2,6
"U16333Z1","Slavkov u Brna, žel. st.",49.144747,16.87383,"635",0,U16333N248,2,
"U16324Z2","Nížkovice, u hřiště",49.107553,16.898418,"635",0,U16324N249,2,
"U16312Z2","Kobeřice, na kopci",49.09734,16.888722,"635",0,U16312N250,2,
"U16313Z2","Kobeřice, pohostinství",49.091723,16.88588,"635",0,U16313N251,2,
"U16313Z1","Kobeřice, pohostinství",49.091723,16.88588,"635",0,U16313N251,2,
"U16312Z1","Kobeřice, na kopci",49.09734,16.888722,"635",0,U16312N250,2,
"U16324Z1","Nížkovice, u hřiště",49.107402,16.898368,"635",0,U16324N249,2,
"U16322Z1","Nížkovice",49.10952,16.900963,"635",0,U16322N252,2,
"U16323Z1","Nížkovice, Na hraničkách",49.11181,16.906248,"635",0,U16323N253,2,
"U16307Z1","Heršpice",49.119358,16.913313,"635",0,U16307N254,2,
"U16308Z1","Heršpice, zelnice",49.122422,16.910233,"635",0,U16308N255,2,
"U16333Z2","Slavkov u Brna, žel. st.",49.144747,16.87383,"635",0,U16333N248,2,
"U16205Z2","Holubice, kruh",49.184597,16.799528,"620",0,U16205N217,2,
"U16105Z2","Jiříkovice, motorest Rohlenka",49.183667,16.760583,"610",0,U16105N216,2,
"U16130Z2","Šlapanice, Bedřichovice, rozc.",49.182977,16.72308,"610",0,U16130N215,2,
"U1577Z6","Slatina, sídliště",49.18229,16.690089,"101",0,U1577N214,1,
"U1068Z2","Černovičky",49.183555,16.666764,"101",0,U1068N213,1,
"U18009Z13","Znojmo, autobusové nádraží",48.851706,16.057086,"800",0,U18009N35,2,6
"U18022Z1","Znojmo, Vídeňská, u školy",48.843183,16.060932,"800",0,U18022N256,2,
"U18040Z2","Znojmo, Dukelská, u mostu",48.837405,16.066682,"800",0,U18040N257,2,
"U18055Z1","Znojmo, Načeratice, host.",48.818411,16.110672,"800",0,U18055N258,2,
"U18054Z1","Znojmo, Derflice",48.8096,16.140661,"800",0,U18054N259,2,
"U18129Z1","Strachotice, obecní úřad",48.79636,16.172543,"810",0,U18129N260,2,
"U18131Z1","Strachotice, Micmanice",48.795962,16.183967,"810",0,U18131N261,2,
"U18277Z1","Slup",48.781372,16.199545,"829",0,U18277N262,2,
"U18359Z61","Hrádek, kulturní dům",48.775257,16.268928,"839",0,U18359N263,2,
"U18274Z1","Jaroslavice",48.757258,16.233215,"829",0,U18274N264,2,
"U18359Z2","Hrádek, kulturní dům",48.775425,16.269938,"839",0,U18359N263,2,
"U18363Z2","Hrádek, u mlýna",48.773192,16.278031,"839",0,U18363N265,2,
"U18357Z2","Dyjákovice, nad hostincem",48.772632,16.29921,"839",0,U18357N266,2,
"U18358Z1","Dyjákovice, škola",48.772805,16.303553,"839",0,U18358N267,2,
"U15775Z3","Hevlín, škola",48.75151,16.380257,"570",0,U15775N1,2,
"U15775Z4","Hevlín, škola",48.751285,16.380187,"570",0,U15775N1,2,
"U18358Z2","Dyjákovice, škola",48.772805,16.303553,"839",0,U18358N267,2,
"U18357Z1","Dyjákovice, nad hostincem",48.772692,16.299182,"839",0,U18357N266,2,
"U18363Z1","Hrádek, u mlýna",48.773442,16.277078,"839",0,U18363N265,2,
"U18359Z1","Hrádek, kulturní dům",48.775944,16.269504,"839",0,U18359N263,2,
"U18129Z2","Strachotice, obecní úřad",48.796507,16.172723,"810",0,U18129N260,2,
"U18279Z2","Slup, Oleksovičky, u mostu",48.780555,16.21034,"829",0,U18279N268,2,
"U18277Z2","Slup",48.781508,16.199292,"829",0,U18277N262,2,
"U18131Z2","Strachotice, Micmanice",48.796048,16.18393,"810",0,U18131N261,2,
"U18054Z2","Znojmo, Derflice",48.809781,16.140364,"800",0,U18054N259,2,
"U18055Z2","Znojmo, Načeratice, host.",48.818567,16.110561,"800",0,U18055N258,2,
"U18040Z1","Znojmo, Dukelská, u mostu",48.837955,16.066447,"800",0,U18040N257,2,
"U18022Z2","Znojmo, Vídeňská, u školy",48.843794,16.060496,"800",0,U18022N256,2,
"U15317Z6","Pohořelice, náměstí",48.980709,16.521906,"530",0,U15317N23,2,2
"U15320Z1","Pohořelice, obchodní akademie",48.978628,16.505258,"530",0,U15320N89,2,
"U14011Z1","Branišovice, státní silnice",48.959107,16.428737,"449",0,U14011N88,2,
"U14024Z1","Trnové Pole, rozcestí",48.955275,16.413453,"449",0,U14024N87,2,
"U14552Z1","Miroslav, rozcestí",48.933498,16.362293,"459",0,U14552N86,2,2
"U14557Z1","Miroslav, Kašenec, státní silnice",48.918435,16.33352,"459",0,U14557N85,2,
"U15557Z1","Mackovice, rozcestí",48.900637,16.292692,"459",0,U15557N84,2,
"U18217Z1","Oleksovice, rozcestí",48.887532,16.260192,"820",0,U18217N83,2,
"U18215Z1","Lechovice, zámek",48.875338,16.236347,"820",0,U18215N82,2,
"U18214Z1","Lechovice, obecní úřad",48.872558,16.222179,"820",0,U18214N81,2,
"U18058Z2","Znojmo, nám.Republiky",48.853569,16.053823,"800",0,U18058N269,2,
"U15166Z4","Rajhrad, stará pošta",49.087524,16.592133,"510",0,U15166N67,2,
"U15138Z2","Rajhrad, hospic",49.086062,16.598458,"510",0,U15138N270,2,
"U14543Z3","Hostěradice, náměstí",48.950522,16.259511,"459",0,U14543N271,2,
"U18224Z1","Vítonice",48.916498,16.20106,"820",0,U18224N272,2,
"U18221Z1","Prosiměřice, u bufetu",48.903893,16.190322,"810",0,U18221N273,2,
"U18135Z1","Těšetice, na hlavní",48.887956,16.157624,"810",0,U18135N274,2,
"U18116Z1","Suchohrdly, Purkrábka",48.868878,16.106653,"800",0,U18116N275,2,
"U18115Z1","Suchohrdly, kurty",48.868297,16.096222,"800",0,U18115N276,2,
"U18110Z2","Suchohrdly, prodejna",48.866425,16.089202,"800",0,U18110N277,2,
"U18002Z2","Znojmo, Suchohrdelská, hřbitov",48.857448,16.066435,"800",0,U18002N278,2,
"U1696Z13","ÚAN Zvonařka",49.185364,16.616151,"100",0,U1696N29,2,32
"U14552Z4","Miroslav, rozcestí",48.933498,16.362293,"459",0,U14552N86,2,2
"U14551Z2","Miroslav, Réna",48.93358,16.337223,"459",0,U14551N279,2,
"U14550Z2","Miroslav, provozovna ČAS",48.941947,16.321227,"459",0,U14550N280,2,
"U14554Z2","Miroslav, statek",48.945973,16.317908,"459",0,U14554N281,2,
"U14546Z2","Miroslav, autobusové nádraží",48.946832,16.313061,"459",0,U14546N282,2,4
"U14546Z3","Miroslav, autobusové nádraží",48.946991,16.312997,"459",0,U14546N282,2,5
"U14554Z1","Miroslav, statek",48.946,16.317705,"459",0,U14554N281,2,
"U14550Z1","Miroslav, provozovna ČAS",48.941983,16.321138,"459",0,U14550N280,2,
"U14551Z1","Miroslav, Réna",48.933435,16.337422,"459",0,U14551N279,2,
"U14558Z1","Miroslav, Kašenec, točna",48.919183,16.327708,"459",0,U14558N283,2,
"U14552Z13","Miroslav, rozcestí",48.933616,16.362524,"459",0,U14552N86,2,1
"U14548Z2","Miroslav, jesle",48.945453,16.308063,"459",0,U14548N284,2,
"U14542Z2","Hostěradice, lom",48.947002,16.264753,"459",0,U14542N285,2,
"U14543Z1","Hostěradice, náměstí",48.950642,16.259606,"459",0,U14543N271,2,
"U14543Z2","Hostěradice, náměstí",48.950522,16.259511,"459",0,U14543N271,2,
"U14542Z1","Hostěradice, lom",48.94687,16.265652,"459",0,U14542N285,2,
"U14548Z1","Miroslav, jesle",48.94488,16.30781,"459",0,U14548N284,2,
"U18009Z3","Znojmo, autobusové nádraží",48.851903,16.057106,"800",0,U18009N35,2,9
"U18002Z1","Znojmo, Suchohrdelská, hřbitov",48.85731,16.06696,"800",0,U18002N278,2,
"U18110Z1","Suchohrdly, prodejna",48.866397,16.089328,"800",0,U18110N277,2,
"U18115Z2","Suchohrdly, kurty",48.868387,16.096818,"800",0,U18115N276,2,
"U18116Z2","Suchohrdly, Purkrábka",48.868827,16.106813,"800",0,U18116N275,2,
"U18135Z2","Těšetice, na hlavní",48.888094,16.157841,"810",0,U18135N274,2,
"U18117Z1","Bantice",48.88332,16.18455,"810",0,U18117N286,2,
"U18222Z1","Stošíkovice na Louce",48.89529,16.214773,"820",0,U18222N287,2,
"U18223Z1","Stošíkovice na Louce, rozcestí",48.890458,16.196641,"810",0,U18223N288,2,
"U18219Z2","Prosiměřice, hostinec",48.902718,16.192215,"810",0,U18219N289,2,
"U18224Z2","Vítonice",48.916333,16.201035,"820",0,U18224N272,2,
"U18218Z2","Oleksovice, u potoka",48.904747,16.24336,"820",0,U18218N290,2,
"U18216Z2","Oleksovice, hostinec",48.901658,16.250667,"820",0,U18216N291,2,
"U14543Z6","Hostěradice, náměstí",48.950522,16.259511,"459",0,U14543N271,2,
"U14552Z3","Miroslav, rozcestí",48.933616,16.362524,"459",0,U14552N86,2,1
"U15550Z2","Damnice",48.920087,16.373648,"550",0,U15550N292,2,
"U15551Z1","Dolenice",48.909272,16.364848,"550",0,U15551N293,2,
"U15551Z2","Dolenice",48.909272,16.364848,"550",0,U15551N293,2,
"U15550Z1","Damnice",48.920138,16.373542,"550",0,U15550N292,2,
"U15552Z3","Jiřice u Miroslavi",48.920697,16.39138,"550",0,U15552N14,2,
"U14552Z14","Miroslav, rozcestí",48.933498,16.362293,"459",0,U14552N86,2,2
"U14565Z2","Suchohrdly u Miroslavi",48.942994,16.363104,"459",0,U14565N294,2,
"U15632Z3","Hrušovany nad Jevišovkou, Lidická, VÚPP",48.831517,16.401898,"560",0,U15632N10,2,
"U15636Z2","Hrušovany nad Jevišovkou, Znojemská",48.829857,16.394073,"560",0,U15636N295,2,
"U15638Z2","Pravice",48.843938,16.361952,"560",0,U15638N296,2,
"U15546Z2","Břežany, u hostince",48.867867,16.344198,"550",0,U15546N297,2,
"U15547Z2","Břežany, u pošty",48.870177,16.339543,"550",0,U15547N298,2,
"U15548Z2","Břežany, u statku",48.872375,16.33823,"550",0,U15548N299,2,
"U15566Z2","Břežany, osada Ležák",48.887033,16.347558,"550",0,U15566N300,2,
"U16353Z1","Kašnice",48.996567,16.8829,"640",0,U16353N301,2,
"U16356Z1","Klobouky u Brna, hřbitov",48.998318,16.862927,"640",0,U16356N302,2,
"U16342Z2","Borkovany, Štoček",49.024797,16.812873,"630",0,U16342N303,2,
"U16340Z2","Borkovany",49.028703,16.80985,"630",0,U16340N304,2,
"U16341Z2","Borkovany, Tomášov",49.029167,16.8048,"630",0,U16341N305,2,
"U1696Z7","ÚAN Zvonařka",49.185364,16.616151,"100",0,U1696N29,2,27
"U1266Z3","Konopná",49.180126,16.621339,"100",0,U1266N163,1,
"U1256Z3","Komárov",49.17444,16.622448,"101",0,U1256N306,1,
"U1533Z1","Ráječek",49.160802,16.638242,"101",0,U1533N161,2,
"U1191Z1","Ivanovické náměstí",49.153066,16.653791,"101",0,U1191N160,1,
"U1131Z7","Hanácká",49.146163,16.665975,"101",0,U1131N159,1,
"U1681Z3","Tuřany, smyčka",49.141407,16.667828,"101",0,U1681N158,1,
"U16147Z1","Sokolnice, rozvodna",49.115062,16.704663,"610",0,U16147N157,2,
"U16138Z3","Telnice",49.101602,16.717823,"610",0,U16138N156,2,
"U15167Z2","Měnín, rozcestí",49.087125,16.716473,"610",0,U15167N155,2,
"U15232Z1","Moutnice, Rozařín",49.05247,16.737351,"525",0,U15232N154,2,
"U15223Z1","Moutnice, střed",49.048967,16.736746,"525",0,U15223N153,2,
"U15227Z1","Těšany, u váhy",49.041022,16.764925,"525",0,U15227N152,2,
"U15226Z1","Těšany",49.039299,16.771319,"525",0,U15226N151,2,
"U16341Z1","Borkovany, Tomášov",49.029118,16.804862,"630",0,U16341N305,2,
"U16340Z1","Borkovany",49.028483,16.809738,"630",0,U16340N304,2,
"U16342Z1","Borkovany, Štoček",49.024727,16.812867,"630",0,U16342N303,2,
"U16344Z1","Klobouky u Brna, Martinice, rozcestí",49.013442,16.828372,"640",0,U16344N150,2,
"U16347Z1","Klobouky u Brna, rozcestí",49.000525,16.862658,"640",0,U16347N149,2,
"U16345Z1","Klobouky u Brna, náměstí",48.99538,16.85736,"640",0,U16345N148,2,1
"U16353Z2","Kašnice",48.996533,16.882788,"640",0,U16353N301,2,
"U16466Z1","Krumvíř, supermarket",48.993439,16.893299,"640",0,U16466N145,2,
"U16457Z1","Krumvíř, obecní úřad",48.988888,16.910692,"640",0,U16457N144,2,
"U16461Z1","Krumvíř, železniční stanice",48.984948,16.917183,"640",0,U16461N143,2,
"U16460Z1","Krumvíř, statek",48.981398,16.923422,"640",0,U16460N142,2,
"U16462Z1","Terezín",48.956737,16.940727,"650",0,U16462N141,2,
"U16545Z1","Čejč, náměstí",48.945868,16.966935,"660",0,U16545N140,2,3
"U16554Z1","Hovorany, rozcestí",48.948342,16.979912,"660",0,U16554N139,2,
"U16551Z1","Hovorany, čerpací stanice",48.941702,16.986192,"660",0,U16551N138,2,
"U19104Z1","Mutěnice, škola",48.90752,17.019163,"910",0,U19104N137,2,
"U19103Z1","Mutěnice, křižovatka",48.904497,17.028817,"910",0,U19103N136,2,
"U19015Z1","Hodonín, Zbrod",48.887819,17.066033,"900",0,U19015N135,2,
"U1696Z12","ÚAN Zvonařka",49.185364,16.616151,"100",0,U1696N29,2,26
"U16348Z1","Klobouky u Brna, samoobsluha",48.995079,16.867518,"640",0,U16348N147,2,
"U16343Z1","Klobouky u Brna, Nádražní",48.994411,16.879339,"640",0,U16343N146,2,
"U1696Z15","ÚAN Zvonařka",49.185475,16.617567,"100",0,U1696N29,2,4
"U1807Z1","Železniční",49.18274,16.619609,"100",0,U1807N307,1,
"U1148Z1","Hněvkovského",49.169807,16.625991,"101",0,U1148N308,1,
"U1511Z1","Popelova",49.156621,16.646516,"101",0,U1511N309,1,
"U1118Z1","Glocova",49.151074,16.659518,"101",0,U1118N310,1,
"U1538Z1","Revoluční",49.149426,16.663085,"101",0,U1538N311,1,
"U1131Z1","Hanácká",49.146954,16.667509,"101",0,U1131N159,1,
"U1186Z1","Chrlická",49.144276,16.66513,"101",0,U1186N312,1,
"U1592Z3","Sokolnická",49.131372,16.684457,"101",0,U1592N313,2,
"U16173Z1","Sokolnice, Brněnská",49.114191,16.714345,"610",0,U16173N314,2,
"U16145Z1","Sokolnice, obecní úřad",49.113855,16.722054,"610",0,U16145N315,2,
"U16149Z1","Sokolnice, železniční stanice",49.108328,16.73367,"610",0,U16149N316,2,1
"U16157Z1","Újezd u Brna, Revoluční",49.106258,16.749987,"610",0,U16157N317,2,
"U16156Z3","Újezd u Brna, městský úřad",49.103863,16.757613,"610",0,U16156N318,2,
"U16156Z2","Újezd u Brna, městský úřad",49.10469,16.757273,"610",0,U16156N318,2,
"U16157Z2","Újezd u Brna, Revoluční",49.106715,16.748685,"610",0,U16157N317,2,
"U16149Z3","Sokolnice, železniční stanice",49.108437,16.733573,"610",0,U16149N316,2,3
"U16145Z2","Sokolnice, obecní úřad",49.114233,16.721202,"610",0,U16145N315,2,
"U16173Z2","Sokolnice, Brněnská",49.114426,16.71486,"610",0,U16173N314,2,
"U1592Z4","Sokolnická",49.131434,16.684472,"101",0,U1592N313,2,
"U1186Z2","Chrlická",49.143983,16.665097,"101",0,U1186N312,1,
"U1538Z2","Revoluční",49.150097,16.661811,"101",0,U1538N311,1,
"U1118Z2","Glocova",49.151351,16.659085,"101",0,U1118N310,1,
"U1511Z2","Popelova",49.156919,16.646204,"101",0,U1511N309,1,
"U1148Z2","Hněvkovského",49.169618,16.626335,"101",0,U1148N308,1,
"U1565Z2","Sazenice",49.172877,16.623824,"101",0,U1565N319,1,
"U1807Z2","Železniční",49.183322,16.619338,"100",0,U1807N307,1,
"U19001Z12","Hodonín, autobusové nádraží",48.854087,17.121641,"900",0,U19001N132,2,7
"U19011Z1","Hodonín, restaurace Morava",48.855525,17.133732,"900",0,U19011N131,2,
"U19007Z1","Hodonín, lázně",48.862895,17.140778,"900",0,U19007N130,2,
"U19004Z1","Hodonín, Černý most",48.866438,17.142225,"900",0,U19004N129,2,
"U19003Z1","Hodonín, cihelna",48.872317,17.146772,"900",0,U19003N128,2,
"U19009Z1","Hodonín, Pánov",48.882762,17.147507,"900",0,U19009N127,2,
"U19159Z1","Ratíškovice, U Hájenky",48.915648,17.160594,"917",0,U19159N126,2,
"U19154Z1","Ratíškovice",48.92089,17.16175,"917",0,U19154N125,2,
"U19160Z1","Ratíškovice, u Svatého Jána",48.923624,17.168384,"917",0,U19160N124,2,
"U19155Z1","Ratíškovice, drůbežárna",48.931355,17.168897,"917",0,U19155N123,2,
"U19162Z1","Vacenovice, stadion",48.93928,17.17065,"917",0,U19162N122,2,
"U19161Z3","Vacenovice",48.945423,17.174122,"917",0,U19161N121,2,
"U16804Z1","Milotice, škola",48.954322,17.152017,"685",0,U16804N120,2,
"U16802Z1","Milotice, náves",48.954794,17.142376,"685",0,U16802N119,2,
"U16801Z1","Milotice, dvůr",48.965408,17.140677,"685",0,U16801N118,2,
"U16805Z1","Skoronice",48.981563,17.153897,"685",0,U16805N117,2,
"U16819Z1","Vlkoš, škola",48.985473,17.15926,"685",0,U16819N116,2,
"U16608Z3","Kyjov, aut. st.",49.006715,17.124547,"675",0,U16608N92,2,15
"U16609Z1","Kyjov, Brandlova sídliště",49.012038,17.136722,"675",0,U16609N320,2,
"U16836Z2","Kostelec, točna",49.026817,17.152758,"687",0,U16836N321,2,
"U16835Z1","Kostelec, horní zastávka",49.032285,17.149582,"687",0,U16835N322,2,
"U16826Z1","Čeložnice, Domov důchodců",49.048863,17.154308,"687",0,U16826N323,2,
"U16825Z1","Čeložnice",49.051555,17.154533,"687",0,U16825N324,2,
"U16825Z2","Čeložnice",49.051555,17.154533,"687",0,U16825N324,2,
"U16826Z2","Čeložnice, Domov důchodců",49.048863,17.154308,"687",0,U16826N323,2,
"U16835Z2","Kostelec, horní zastávka",49.032285,17.149582,"687",0,U16835N322,2,
"U16609Z2","Kyjov, Brandlova sídliště",49.011808,17.136515,"675",0,U16609N320,2,
"U19147Z2","Dubňany, pivnice",48.916573,17.09714,"917",0,U19147N325,2,
"U19143Z2","Dubňany, kaplička",48.916199,17.089519,"917",0,U19143N326,2,
"U19153Z2","Dubňany, učiliště",48.917903,17.084772,"917",0,U19153N327,2,
"U19148Z2","Dubňany, rozcestí k železniční stanici",48.920705,17.073568,"917",0,U19148N328,2,
"U19142Z2","Dubňany, Jarohněvice",48.924738,17.075872,"917",0,U19142N329,2,
"U19148Z1","Dubňany, rozcestí k železniční stanici",48.92073,17.072988,"917",0,U19148N328,2,
"U19153Z1","Dubňany, učiliště",48.917672,17.085105,"917",0,U19153N327,2,
"U19150Z1","Dubňany, školka",48.9171,17.093743,"917",0,U19150N330,2,
"U19141Z1","Dubňany, Horní Huť",48.926363,17.08807,"917",0,U19141N331,2,
"U19145Z1","Dubňany, náměstí",48.920078,17.102671,"917",0,U19145N332,2,
"U19144Z1","Dubňany, kostel",48.922723,17.108403,"917",0,U19144N333,2,
"U19144Z2","Dubňany, kostel",48.9231,17.107234,"917",0,U19144N333,2,
"U19145Z2","Dubňany, náměstí",48.920289,17.102765,"917",0,U19145N332,2,
"U19150Z2","Dubňany, školka",48.917078,17.093072,"917",0,U19150N330,2,
"U19143Z1","Dubňany, kaplička",48.916155,17.08939,"917",0,U19143N326,2,
"U19147Z1","Dubňany, pivnice",48.916235,17.095502,"917",0,U19147N325,2,
"U16345Z5","Klobouky u Brna, náměstí",48.995257,16.857507,"640",0,U16345N148,2,2
"U16346Z1","Klobouky u Brna, ropovod",48.983635,16.862805,"640",0,U16346N334,2,
"U16349Z1","Klobouky u Brna, samota",48.97557,16.862025,"640",0,U16349N335,2,
"U16355Z1","Morkůvky, obecní úřad",48.966503,16.863128,"650",0,U16355N336,2,
"U16453Z1","Brumovice, škola",48.962895,16.896293,"650",0,U16453N337,2,
"U16452Z1","Brumovice, obecní úřad",48.95909,16.896238,"650",0,U16452N338,2,
"U16454Z1","Brumovice, železniční stanice",48.947167,16.905878,"650",0,U16454N339,2,
"U15539Z1","Kobylí, statek",48.942318,16.897075,"650",0,U15539N340,2,
"U15538Z1","Kobylí",48.931883,16.884127,"650",0,U15538N341,2,
"U15540Z1","Kobylí, škola",48.928757,16.886635,"650",0,U15540N342,2,
"U15541Z1","Vrbice, Jednota",48.916225,16.895935,"650",0,U15541N343,2,
"U15542Z1","Vrbice, obecní úřad",48.912783,16.891812,"650",0,U15542N344,2,
"U15512Z1","Bořetice, u Floriánka",48.910757,16.858672,"555",0,U15512N345,2,
"U15511Z1","Bořetice",48.91189,16.854014,"555",0,U15511N346,2,
"U15513Z1","Bořetice, železniční stanice",48.916475,16.852765,"555",0,U15513N347,2,
"U15517Z1","Němčičky, u mlýna",48.933338,16.834867,"555",0,U15517N348,2,
"U15518Z1","Němčičky, ZD",48.935805,16.828869,"555",0,U15518N349,2,
"U15515Z1","Němčičky, střed",48.934927,16.821875,"555",0,U15515N350,2,
"U15516Z1","Němčičky, transformátor",48.9334,16.818862,"555",0,U15516N351,2,
"U15514Z1","Němčičky, rozcestí",48.936578,16.816049,"555",0,U15514N352,2,
"U15531Z1","Velké Pavlovice, obchodní středisko",48.902075,16.818153,"555",0,U15531N353,2,
"U15528Z51","Velké Pavlovice, autobusové nádraží",48.897843,16.81716,"555",0,U15528N354,2,
"U15528Z4","Velké Pavlovice, autobusové nádraží",48.897773,16.816629,"555",0,U15528N354,2,4
"U15531Z2","Velké Pavlovice, obchodní středisko",48.902305,16.818257,"555",0,U15531N353,2,
"U15514Z2","Němčičky, rozcestí",48.936416,16.816057,"555",0,U15514N352,2,
"U15516Z2","Němčičky, transformátor",48.933387,16.818782,"555",0,U15516N351,2,
"U15515Z2","Němčičky, střed",48.934855,16.821845,"555",0,U15515N350,2,
"U15518Z2","Němčičky, ZD",48.935743,16.828872,"555",0,U15518N349,2,
"U15517Z2","Němčičky, u mlýna",48.933338,16.834867,"555",0,U15517N348,2,
"U15513Z2","Bořetice, železniční stanice",48.916388,16.852805,"555",0,U15513N347,2,
"U15511Z2","Bořetice",48.91189,16.854014,"555",0,U15511N346,2,
"U15512Z2","Bořetice, u Floriánka",48.910652,16.858853,"555",0,U15512N345,2,
"U15542Z2","Vrbice, obecní úřad",48.912732,16.892077,"650",0,U15542N344,2,
"U15541Z2","Vrbice, Jednota",48.916145,16.896068,"650",0,U15541N343,2,
"U15540Z2","Kobylí, škola",48.928805,16.88645,"650",0,U15540N342,2,
"U15538Z2","Kobylí",48.932237,16.884008,"650",0,U15538N341,2,
"U15539Z2","Kobylí, statek",48.942318,16.897075,"650",0,U15539N340,2,
"U16454Z2","Brumovice, železniční stanice",48.947167,16.905878,"650",0,U16454N339,2,
"U16452Z2","Brumovice, obecní úřad",48.959287,16.896337,"650",0,U16452N338,2,
"U16453Z2","Brumovice, škola",48.963013,16.896358,"650",0,U16453N337,2,
"U16355Z2","Morkůvky, obecní úřad",48.966387,16.862801,"650",0,U16355N336,2,
"U16349Z2","Klobouky u Brna, samota",48.97557,16.862062,"640",0,U16349N335,2,
"U16346Z2","Klobouky u Brna, ropovod",48.983575,16.862818,"640",0,U16346N334,2,
"U16351Z2","Klobouky u Brna, Wurmova",48.993705,16.863788,"640",0,U16351N355,2,
"U16345Z3","Klobouky u Brna, náměstí",48.995257,16.857507,"640",0,U16345N148,2,2
"U31028Z1","Staré Město u Uherského Hradiště",49.076029,17.422624,"957",0,U31028N356,2,
"U31027Z1","Uherské Hradiště",49.066881,17.457171,"957",0,U31027N357,2,
"U31026Z2","Kunovice",49.051914,17.470711,"957",0,U31026N358,2,
"U31026Z1","Kunovice",49.051998,17.470067,"957",0,U31026N358,2,
"U31027Z2","Uherské Hradiště",49.066825,17.457085,"957",0,U31027N357,2,
"U31028Z2","Staré Město u Uherského Hradiště",49.076022,17.42271,"957",0,U31028N356,2,
"U15637Z22","Hrušovany nad Jevišovkou, žel. st.",48.810465,16.38336,"560",0,U15637N6,2,
"U15641Z2","Březí",48.821337,16.563325,"561",0,U15641N359,2,
"U15714Z20","Mikulov, železniční stanice",48.801587,16.626658,"571",0,U15714N36,2,3
"U15641Z1","Březí",48.821397,16.563187,"561",0,U15641N359,2,
"U15560Z2","Jevišovka",48.828412,16.465892,"551",0,U15560N360,2,
"U15561Z2","Novosedly",48.837912,16.494155,"551",0,U15561N361,2,
"U15642Z2","Dobré Pole",48.825967,16.535573,"561",0,U15642N362,2,
"U15642Z1","Dobré Pole",48.825967,16.535573,"561",0,U15642N362,2,
"U15561Z1","Novosedly",48.838367,16.494092,"551",0,U15561N361,2,
"U15560Z1","Jevišovka",48.828412,16.465892,"551",0,U15560N360,2,
"U28502Z11","Moravské Budějovice",49.057522,15.809326,"855",0,U28502N363,2,
"U28501Z11","Vesce",49.019071,15.831277,"845",0,U28501N364,2,
"U18401Z2","Blížkovice, náměstí",48.999513,15.840092,"845",0,U18401N365,2,
"U28401Z11","Blížkovice",49.004292,15.854364,"845",0,U28401N366,2,
"U18339Z21","Grešlové Mýto, železniční stanice",48.984552,15.874937,"835",0,U18339N367,2,
"U18339Z20","Grešlové Mýto, železniční stanice",48.98443,15.874785,"835",0,U18339N367,2,
"U28401Z10","Blížkovice",49.004292,15.854364,"845",0,U28401N366,2,
"U18401Z1","Blížkovice, náměstí",48.999513,15.840092,"845",0,U18401N365,2,
"U28501Z10","Vesce",49.019071,15.831277,"845",0,U28501N364,2,
"U28502Z10","Moravské Budějovice",49.057522,15.809326,"855",0,U28502N363,2,
"U18009Z31","Znojmo, autobusové nádraží",48.852906,16.058272,"800",0,U18009N35,2,4
"U18011Z5","Znojmo, nám.Svobody, lázně",48.860635,16.049485,"800",0,U18011N368,2,
"U18258Z1","Šumná, obecní úřad",48.920485,15.871943,"825",0,U18258N369,2,
"U18258Z11","Šumná, obecní úřad",48.920485,15.871943,"825",0,U18258N369,2,
"U18011Z2","Znojmo, nám.Svobody, lázně",48.860435,16.049027,"800",0,U18011N368,2,
"U1146Z98","Hlavní nádraží",49.19035,16.612342,"100",0,U1146N370,2,
"U1183Z11","Chrlice, nádraží",49.132031,16.657232,"101",0,U1183N371,2,
"U16149Z11","Sokolnice, železniční stanice",49.108029,16.733459,"610",0,U16149N316,2,
"U16149Z10","Sokolnice, železniční stanice",49.108029,16.733459,"610",0,U16149N316,2,
"U1183Z10","Chrlice, nádraží",49.132031,16.657232,"101",0,U1183N371,2,
"U1146Z99","Hlavní nádraží",49.19035,16.612342,"100",0,U1146N370,2,
"U1809Z10","Židenice, nádraží",49.204282,16.636042,"100",0,U1809N372,2,
"U12158Z10","Bílovice nad Svitavou, žel. stanice",49.242715,16.673677,"215",0,U12158N373,2,
"U22101Z1","Babice nad Svitavou",49.276645,16.673012,"215",0,U22101N374,2,
"U12230Z10","Adamov, železniční stanice",49.295341,16.663538,"225",0,U12230N375,2,
"U12231Z10","Adamov, železniční zastávka",49.300671,16.650653,"225",0,U12231N376,2,
"U12342Z30","Blansko, aut. st.",49.352753,16.646848,"235",0,U12342N377,2,
"U22302Z1","Blansko město",49.360996,16.639464,"235",0,U22302N378,2,
"U22301Z1","Dolní Lhota",49.386917,16.633978,"235",0,U22301N379,2,
"U12439Z50","Rájec-Jestřebí, železniční stanice",49.408206,16.627711,"245",0,U12439N380,2,
"U12511Z50","Doubravice, žel.st.",49.438707,16.621809,"255",0,U12511N381,2,
"U12676Z50","Skalice nad Svitavou, žel.st.",49.480123,16.609726,"265",0,U12676N382,2,
"U22602Z1","Svitávka",49.499434,16.599208,"265",0,U22602N383,2,
"U22701Z1","Zboněk",49.521608,16.583438,"275",0,U22701N384,2,
"U22702Z1","Letovice zastávka",49.535496,16.576998,"275",0,U22702N385,2,
"U12736Z50","Letovice, železniční stanice",49.555973,16.570906,"275",0,U12736N386,2,
"U12736Z51","Letovice, železniční stanice",49.555973,16.570906,"275",0,U12736N386,2,
"U12676Z51","Skalice nad Svitavou, žel.st.",49.480123,16.609726,"265",0,U12676N382,2,
"U22302Z2","Blansko město",49.360996,16.639464,"235",0,U22302N378,2,
"U12342Z29","Blansko, aut. st.",49.352753,16.646848,"235",0,U12342N377,2,
"U12230Z11","Adamov, železniční stanice",49.295341,16.663538,"225",0,U12230N375,2,
"U1809Z11","Židenice, nádraží",49.204282,16.636042,"100",0,U1809N372,2,
"U22702Z2","Letovice zastávka",49.536152,16.576186,"275",0,U22702N385,2,
"U22701Z2","Zboněk",49.520482,16.584439,"275",0,U22701N384,2,
"U22602Z2","Svitávka",49.499434,16.599208,"265",0,U22602N383,2,
"U12511Z51","Doubravice, žel.st.",49.438707,16.621809,"255",0,U12511N381,2,
"U12439Z51","Rájec-Jestřebí, železniční stanice",49.408206,16.627711,"245",0,U12439N380,2,
"U22301Z2","Dolní Lhota",49.386917,16.633978,"235",0,U22301N379,2,
"U12231Z11","Adamov, železniční zastávka",49.300671,16.650653,"225",0,U12231N376,2,
"U22101Z2","Babice nad Svitavou",49.276645,16.673012,"215",0,U22101N374,2,
"U12158Z11","Bílovice nad Svitavou, žel. stanice",49.242715,16.673677,"215",0,U12158N373,2,
"U26101Z2","Újezd u Brna",49.107297,16.745564,"610",0,U26101N387,2,
"U26102Z2","Hostěrádky-Rešov",49.119822,16.782755,"610",0,U26102N388,2,
"U26201Z2","Zbýšov",49.132691,16.806859,"620",0,U26201N389,2,
"U16212Z11","Křenovice, hor. žel. st.",49.143553,16.824564,"620",0,U16212N390,2,
"U16228Z11","Holubice, žel.st.",49.179869,16.824654,"620",0,U16228N391,2,
"U16228Z12","Holubice, žel.st.",49.179869,16.824654,"620",0,U16228N391,2,
"U16212Z10","Křenovice, hor. žel. st.",49.143553,16.824564,"620",0,U16212N390,2,
"U26201Z1","Zbýšov",49.132691,16.806859,"620",0,U26201N389,2,
"U26102Z1","Hostěrádky-Rešov",49.119822,16.782755,"610",0,U26102N388,2,
"U26101Z1","Újezd u Brna",49.107297,16.745564,"610",0,U26101N387,2,
"U15140Z11","Modřice, železniční stanice",49.133256,16.606209,"510",0,U15140N392,2,
"U17342Z11","Rousínov, žel. st.",49.196667,16.867139,"730",0,U17342N393,2,
"U27301Z2","Luleč",49.248056,16.921667,"730",0,U27301N394,2,
"U17446Z11","Vyškov, železniční stanice",49.277222,16.990833,"740",0,U17446N223,2,
"U17446Z10","Vyškov, železniční stanice",49.277222,16.990833,"740",0,U17446N223,2,
"U27301Z1","Luleč",49.248056,16.921667,"730",0,U27301N394,2,
"U17342Z10","Rousínov, žel. st.",49.196667,16.867139,"730",0,U17342N393,2,
"U12635Z50","Boskovice, aut.st.",49.491667,16.651778,"265",0,U12635N395,2,
"U12635Z51","Boskovice, aut.st.",49.491667,16.651778,"265",0,U12635N395,2,
"U12936Z11","Březová nad Svitavou, železniční stanice",49.633104,16.520656,"295",0,U12936N396,2,
"U12804Z11","Brněnec, Mor.Chrastová, žel.st.",49.623616,16.524459,"285",0,U12804N397,2,
"U12819Z11","Rozhraní, železniční zastávka",49.601763,16.532438,"285",0,U12819N398,2,
"U12819Z10","Rozhraní, železniční zastávka",49.601763,16.532438,"285",0,U12819N398,2,
"U12804Z10","Brněnec, Mor.Chrastová, žel.st.",49.622904,16.524586,"285",0,U12804N397,2,
"U12936Z10","Březová nad Svitavou, železniční stanice",49.633104,16.520656,"295",0,U12936N396,2,
"U1286Z10","Královo Pole, nádraží",49.231051,16.596651,"101",0,U1286N399,2,
"U13334Z20","Tišnov, železniční stanice",49.3475,16.41725,"330",0,U13334N400,2,
"U13143Z10","Kuřim, železniční stanice",49.301,16.534523,"310",0,U13143N401,2,
"U13334Z21","Tišnov, železniční stanice",49.3475,16.41725,"330",0,U13334N400,2,
"U1286Z11","Královo Pole, nádraží",49.231051,16.596651,"101",0,U1286N399,2,
"U7530Z21","Dolní nádraží",49.183247,16.616067,"100",0,U7530N402,2,
"U13143Z11","Kuřim, železniční stanice",49.301,16.534523,"310",0,U13143N401,2,
"U1146Z97","Hlavní nádraží",49.189976,16.610222,"100",0,U1146N370,2,
"U14507Z51","Náměšť nad Oslavou, autobusové nádraží",49.207007,16.14766,"456",0,U14507N403,2,
"U14507Z52","Náměšť nad Oslavou, autobusové nádraží",49.207007,16.14766,"456",0,U14507N403,2,
"U1146Z96","Hlavní nádraží",49.189976,16.610222,"100",0,U1146N370,2,
"U27501Z2","Hoštice-Heroltice",49.291389,17.057778,"750",0,U27501N404,2,
"U17514Z21","Ivanovice na Hané, aut. st.",49.306111,17.086945,"750",0,U17514N405,2,
"U27502Z2","Chvalkovice na Hané",49.321667,17.111389,"750",0,U27502N406,2,
"U27503Z2","Nezamyslice",49.336,17.1625,"765",0,U27503N407,2,
"U27503Z1","Nezamyslice",49.336,17.1625,"765",0,U27503N407,2,
"U27502Z1","Chvalkovice na Hané",49.321667,17.111389,"750",0,U27502N406,2,
"U17514Z20","Ivanovice na Hané, aut. st.",49.306111,17.086945,"750",0,U17514N405,2,
"U27501Z1","Hoštice-Heroltice",49.291389,17.057778,"750",0,U27501N404,2,
"U15729Z14","Břeclav, autobusové nádraží",48.753851,16.893169,"575",0,U15729N408,2,
"U15828Z10","Valtice, železniční zastávka",48.748776,16.762369,"582",0,U15828N409,2,
"U15811Z10","Valtice, železniční stanice",48.74683,16.745117,"582",0,U15811N410,2,
"U25701Z10","Sedlec u Mikulova",48.774564,16.699006,"582",0,U25701N411,2,
"U15714Z10","Mikulov, železniční stanice",48.802203,16.625492,"571",0,U15714N36,2,
"U15714Z11","Mikulov, železniční stanice",48.802203,16.625492,"571",0,U15714N36,2,
"U25701Z11","Sedlec u Mikulova",48.774564,16.699006,"582",0,U25701N411,2,
"U15811Z11","Valtice, železniční stanice",48.74683,16.745117,"582",0,U15811N410,2,
"U15828Z11","Valtice, železniční zastávka",48.748776,16.762369,"582",0,U15828N409,2,
"U25702Z11","Boří les",48.738078,16.866374,"575",0,U25702N412,2,
"U15729Z15","Břeclav, autobusové nádraží",48.753851,16.893169,"575",0,U15729N408,2,
"U25702Z10","Boří les",48.738078,16.866374,"575",0,U25702N412,2,
"U18009Z21","Znojmo, autobusové nádraží",48.852761,16.059287,"800",0,U18009N35,2,
"U28102Z11","Dyje",48.850047,16.1205,"810",0,U28102N413,2,
"U28101Z11","Hodonice",48.841514,16.164403,"810",0,U28101N414,2,
"U18208Z11","Božice, železniční stanice",48.823282,16.287832,"820",0,U18208N415,2,
"U15637Z11","Hrušovany nad Jevišovkou, žel. st.",48.810029,16.383137,"560",0,U15637N6,2,
"U15637Z10","Hrušovany nad Jevišovkou, žel. st.",48.810029,16.383137,"560",0,U15637N6,2,
"U18208Z10","Božice, železniční stanice",48.823282,16.287832,"820",0,U18208N415,2,
"U28101Z10","Hodonice",48.841514,16.164403,"810",0,U28101N414,2,
"U28102Z10","Dyje",48.850047,16.1205,"810",0,U28102N413,2,
"U18009Z20","Znojmo, autobusové nádraží",48.852761,16.059287,"800",0,U18009N35,2,
"U30009Z2","Křižanov",49.388889,16.079445,"367",0,U30009N416,2,
"U30302Z2","Ořechov",49.350117,16.138294,"367",0,U30302N417,2,
"U30305Z2","Osová Bítýška",49.329893,16.168305,"355",0,U30305N418,2,
"U23501Z2","Vlkov-Osová",49.326883,16.202114,"355",0,U23501N419,2,
"U13454Z11","Níhov, železniční stanice",49.335275,16.269007,"345",0,U13454N420,2,
"U13425Z11","Řikonín, železniční stanice",49.365833,16.305833,"340",0,U13425N421,2,
"U13411Z11","Dolní Loučky, železniční stanice",49.356389,16.346945,"340",0,U13411N422,2,
"U13306Z11","Hradčany, železniční stanice",49.333603,16.438056,"330",0,U13306N423,2,
"U13206Z11","Čebín, železniční stanice",49.319722,16.465278,"320",0,U13206N424,2,
"U13109Z11","Česká, železniční stanice",49.284546,16.566731,"310",0,U13109N425,2,
"U1331Z11","Lesná, nádraží",49.220432,16.627505,"101",0,U1331N426,2,
"U15181Z11","Rajhrad, železniční stanice",49.084966,16.60532,"510",0,U15181N66,2,
"U15222Z11","Hrušovany u Brna, žel. st.",49.034228,16.591501,"525",0,U15222N427,2,
"U15306Z11","Žabčice, žel. st.",49.010278,16.594722,"535",0,U15306N428,2,
"U15307Z11","Vranovice, žel.st.",48.964528,16.604187,"535",0,U15307N429,2,
"U25401Z11","Pouzdřany",48.942025,16.630527,"545",0,U25401N430,2,
"U25402Z11","Popice",48.924332,16.668084,"545",0,U25402N431,2,
"U15425Z11","Šakvice, železniční stanice",48.912883,16.70557,"545",0,U15425N432,2,
"U15403Z11","Hustopeče, autobusové nádraží",48.93752,16.735901,"545",0,U15403N433,2,
"U15403Z10","Hustopeče, autobusové nádraží",48.93752,16.735901,"545",0,U15403N433,2,
"U15425Z10","Šakvice, železniční stanice",48.912883,16.70557,"545",0,U15425N432,2,
"U25402Z10","Popice",48.924332,16.668084,"545",0,U25402N431,2,
"U25401Z10","Pouzdřany",48.942025,16.630527,"545",0,U25401N430,2,
"U15307Z10","Vranovice, žel.st.",48.964528,16.604187,"535",0,U15307N429,2,
"U15306Z10","Žabčice, žel. st.",49.010278,16.594722,"535",0,U15306N428,2,
"U15222Z10","Hrušovany u Brna, žel. st.",49.034228,16.591501,"525",0,U15222N427,2,
"U15181Z10","Rajhrad, železniční stanice",49.084966,16.60532,"510",0,U15181N66,2,
"U15140Z10","Modřice, železniční stanice",49.133256,16.606209,"510",0,U15140N392,2,
"U1331Z10","Lesná, nádraží",49.220432,16.627505,"101",0,U1331N426,2,
"U13109Z10","Česká, železniční stanice",49.284546,16.566731,"310",0,U13109N425,2,
"U13206Z10","Čebín, železniční stanice",49.319722,16.465278,"320",0,U13206N424,2,
"U13306Z10","Hradčany, železniční stanice",49.333603,16.438056,"330",0,U13306N423,2,
"U13411Z10","Dolní Loučky, železniční stanice",49.356389,16.346945,"340",0,U13411N422,2,
"U13425Z10","Řikonín, železniční stanice",49.365833,16.305833,"340",0,U13425N421,2,
"U13454Z10","Níhov, železniční stanice",49.335275,16.269007,"345",0,U13454N420,2,
"U23501Z1","Vlkov-Osová",49.326883,16.202114,"355",0,U23501N419,2,
"U30305Z1","Osová Bítýška",49.329893,16.168305,"355",0,U30305N418,2,
"U30302Z1","Ořechov",49.348846,16.139929,"367",0,U30302N417,2,
"U30009Z1","Křižanov",49.388889,16.079445,"367",0,U30009N416,2,
"U11002Z11","Brno-Horní Heršpice",49.167404,16.60686,"101",0,U11002N434,2,
"U11002Z10","Brno-Horní Heršpice",49.167404,16.60686,"101",0,U11002N434,2,
"U15135Z11","Popovice, u tratě",49.103463,16.605647,"510",0,U15135N435,2,
"U25201Z11","Vojkovice nad Svratkou, žel. st.",49.056208,16.597445,"525",0,U25201N436,2,
"U1557Z11","Řečkovice, nádraží",49.250794,16.590446,"101",0,U1557N437,2,
"U25201Z10","Vojkovice nad Svratkou, žel. st.",49.056208,16.597445,"525",0,U25201N436,2,
"U15135Z10","Popovice, u tratě",49.103463,16.605647,"510",0,U15135N435,2,
"U1557Z10","Řečkovice, nádraží",49.250794,16.590446,"101",0,U1557N437,2,
"U15241Z22","Židlochovice, železniční stanice",49.033178,16.617165,"525",0,U15241N438,2,
"U15241Z21","Židlochovice, železniční stanice",49.033113,16.617218,"525",0,U15241N438,2,
"U15537Z11","Zaječí, železniční stanice",48.889637,16.781831,"555",0,U15537N439,2,
"U25501Z11","Rakvice",48.866893,16.821444,"555",0,U25501N440,2,
"U15619Z11","Podivín, železniční stanice",48.837775,16.853671,"565",0,U15619N441,2,
"U15609Z11","Ladná, železniční stanice",48.813095,16.880976,"565",0,U15609N442,2,
"U15729Z11","Břeclav, autobusové nádraží",48.753851,16.893169,"575",0,U15729N408,2,
"U15729Z10","Břeclav, autobusové nádraží",48.753851,16.893169,"575",0,U15729N408,2,
"U15609Z10","Ladná, železniční stanice",48.813095,16.880976,"565",0,U15609N442,2,
"U15619Z10","Podivín, železniční stanice",48.837775,16.853671,"565",0,U15619N441,2,
"U25501Z10","Rakvice",48.866893,16.821444,"555",0,U25501N440,2,
"U15537Z10","Zaječí, železniční stanice",48.889637,16.781831,"555",0,U15537N439,2,
"U29101Z11","Hrušky zastávka",48.787124,16.98157,"912",0,U29101N443,2,
"U19129Z11","Moravská Nová Ves, železniční stanice",48.799493,17.021674,"912",0,U19129N444,2,
"U19119Z11","Lužice, železniční stanice",48.827619,17.061961,"912",0,U19119N445,2,
"U19001Z21","Hodonín, autobusové nádraží",48.85575,17.12069,"900",0,U19001N132,2,
"U19001Z20","Hodonín, autobusové nádraží",48.85575,17.12069,"900",0,U19001N132,2,
"U19119Z10","Lužice, železniční stanice",48.827619,17.061961,"912",0,U19119N445,2,
"U19129Z10","Moravská Nová Ves, železniční stanice",48.799493,17.021674,"912",0,U19129N444,2,
"U29101Z10","Hrušky zastávka",48.787124,16.98157,"912",0,U29101N443,2,
"U13520Z2","Nedvědice, železniční stanice",49.454167,16.338333,"350",0,U13520N446,2,
"U13506Z11","Doubravník, železniční stanice",49.426945,16.352389,"350",0,U13506N447,2,
"U13464Z2","Prudká zastávka",49.419195,16.367361,"340",0,U13464N448,2,
"U13463Z2","Borač, žel. st.",49.400145,16.366389,"340",0,U13463N449,2,
"U13462Z2","Štěpánovice",49.374445,16.388056,"340",0,U13462N450,2,
"U13462Z1","Štěpánovice",49.374445,16.388056,"340",0,U13462N450,2,
"U13463Z1","Borač, žel. st.",49.400145,16.366389,"340",0,U13463N449,2,
"U13464Z1","Prudká zastávka",49.419195,16.367361,"340",0,U13464N448,2,
"U13506Z10","Doubravník, železniční stanice",49.426945,16.352389,"350",0,U13506N447,2,
"U13520Z1","Nedvědice, železniční stanice",49.454167,16.338333,"350",0,U13520N446,2,
"U23601Z2","Věžná",49.451547,16.270316,"360",0,U23601N451,2,
"U13605Z12","Rožná, železniční stanice",49.472143,16.245416,"360",0,U13605N452,2,
"U13701Z12","Bystřice nad Pern., železniční stanice",49.513611,16.246667,"370",0,U13701N453,2,
"U13801Z12","Rozsochy, železniční stanice",49.537385,16.195122,"380",0,U13801N454,2,
"U23801Z2","Rovné-Divišov",49.547632,16.172826,"380",0,U23801N455,2,
"U23801Z1","Rovné-Divišov",49.547632,16.172826,"380",0,U23801N455,2,
"U13801Z11","Rozsochy, železniční stanice",49.537385,16.195122,"380",0,U13801N454,2,
"U13701Z11","Bystřice nad Pern., železniční stanice",49.513611,16.246667,"370",0,U13701N453,2,
"U13605Z11","Rožná, železniční stanice",49.472143,16.245416,"360",0,U13605N452,2,
"U23601Z1","Věžná",49.451547,16.270316,"360",0,U23601N451,2,
"U25504Z10","Kobylí na Moravě",48.934022,16.881272,"650",0,U25504N456,2,
"U15513Z10","Bořetice, železniční stanice",48.916314,16.850139,"555",0,U15513N347,2,
"U25503Z10","Velké Pavlovice zastávka",48.901672,16.8224,"555",0,U25503N457,2,
"U25502Z10","Velké Pavlovice",48.88985,16.823672,"555",0,U25502N458,2,
"U15537Z12","Zaječí, železniční stanice",48.889637,16.781831,"555",0,U15537N439,2,
"U15537Z13","Zaječí, železniční stanice",48.889637,16.781831,"555",0,U15537N439,2,
"U25502Z11","Velké Pavlovice",48.88985,16.823672,"555",0,U25502N458,2,
"U25503Z11","Velké Pavlovice zastávka",48.901672,16.8224,"555",0,U25503N457,2,
"U15513Z11","Bořetice, železniční stanice",48.916314,16.850139,"555",0,U15513N347,2,
"U25504Z11","Kobylí na Moravě",48.934022,16.881272,"650",0,U25504N456,2,
"U19302Z11","Moravský Písek, Kolonie, žel. stanice",48.977119,17.314582,"695",0,U19302N459,2,
"U31028Z11","Staré Město u Uherského Hradiště",49.076212,17.422903,"957",0,U31028N356,2,
"U29103Z11","Rohatec",48.892515,17.197852,"915",0,U29103N460,2,
"U31028Z10","Staré Město u Uherského Hradiště",49.076247,17.422785,"957",0,U31028N356,2,
"U19302Z10","Moravský Písek, Kolonie, žel. stanice",48.977119,17.314582,"695",0,U19302N459,2,
"U29103Z10","Rohatec",48.892515,17.197852,"915",0,U29103N460,2,
"U18009Z23","Znojmo, autobusové nádraží",48.852761,16.059287,"800",0,U18009N35,2,
"U28001Z1","Znojmo-Nový Šaldorf",48.820061,16.044266,"800",0,U28001N461,2,
"U18168Z11","Šatov, železniční stanice",48.780786,16.026006,"817",0,U18168N462,2,
"U31033Z1","Unterretzbach",48.764701,16.007784,"827",0,U31033N463,2,
"U31034Z11","Retz",48.753724,15.957444,"838",0,U31034N464,2,
"U31034Z10","Retz",48.753724,15.957444,"838",0,U31034N464,2,
"U31033Z2","Unterretzbach",48.764701,16.007784,"827",0,U31033N463,2,
"U18168Z10","Šatov, železniční stanice",48.780786,16.026006,"817",0,U18168N462,2,
"U18009Z22","Znojmo, autobusové nádraží",48.852761,16.059287,"800",0,U18009N35,2,
"U28001Z2","Znojmo-Nový Šaldorf",48.820061,16.044266,"800",0,U28001N461,2,
"U28002Z10","Znojmo nemocnice",48.865504,16.048394,"800",0,U28002N465,2,
"U28103Z10","Citonice",48.878906,15.977467,"815",0,U28103N466,2,
"U18158Z10","Olbramkostel, železniční stanice",48.903229,15.949177,"815",0,U18158N467,2,
"U18259Z10","Šumná, železniční stanice",48.923097,15.874306,"825",0,U18259N468,2,
"U18339Z10","Grešlové Mýto, železniční stanice",48.98455,15.874436,"835",0,U18339N367,2,
"U18339Z11","Grešlové Mýto, železniční stanice",48.98455,15.874436,"835",0,U18339N367,2,
"U18259Z11","Šumná, železniční stanice",48.923097,15.874306,"825",0,U18259N468,2,
"U18158Z11","Olbramkostel, železniční stanice",48.903229,15.949177,"815",0,U18158N467,2,
"U28103Z11","Citonice",48.878906,15.977467,"815",0,U28103N466,2,
"U28002Z11","Znojmo nemocnice",48.865504,16.048394,"800",0,U28002N465,2,
"U30342Z10","Kostelany nad Moravou",49.052678,17.396915,"947",0,U30342N469,2,
"U30319Z10","Nedakonice",49.032515,17.374985,"947",0,U30319N470,2,
"U29301Z10","Moravský Písek zastávka",48.991257,17.330117,"695",0,U29301N471,2,
"U16905Z10","Bzenec, Přívoz, železniční stanice",48.935197,17.286642,"695",0,U16905N171,2,
"U29102Z10","Rohatec zastávka",48.88309,17.178111,"915",0,U29102N472,2,
"U29102Z11","Rohatec zastávka",48.88309,17.178111,"915",0,U29102N472,2,
"U16905Z11","Bzenec, Přívoz, železniční stanice",48.935197,17.286642,"695",0,U16905N171,2,
"U29301Z11","Moravský Písek zastávka",48.991257,17.330117,"695",0,U29301N471,2,
"U30319Z11","Nedakonice",49.032515,17.374985,"947",0,U30319N470,2,
"U30342Z11","Kostelany nad Moravou",49.052678,17.396915,"947",0,U30342N469,2,
"U14242Z20","Zastávka, železniční stanice",49.187554,16.358768,"425",0,U14242N473,2,
"U24201Z1","Rosice u Brna",49.178455,16.38459,"425",0,U24201N474,2,
"U14238Z10","Tetčice, žel. st.",49.172323,16.408188,"425",0,U14238N475,2,
"U24101Z1","Střelice",49.153889,16.483056,"410",0,U24101N476,2,
"U14119Z10","Střelice, dolní železniční stanice",49.156945,16.508889,"410",0,U14119N477,2,
"U24103Z2","Ostopovice",49.164803,16.544451,"410",0,U24103N478,2,
"U24101Z2","Střelice",49.153889,16.483056,"410",0,U24101N476,2,
"U14238Z11","Tetčice, žel. st.",49.172323,16.408188,"425",0,U14238N475,2,
"U24201Z2","Rosice u Brna",49.178455,16.38459,"425",0,U24201N474,2,
"U14242Z21","Zastávka, železniční stanice",49.187554,16.358768,"425",0,U14242N473,2,
"U24103Z1","Ostopovice",49.164803,16.544451,"410",0,U24103N478,2,
"U14119Z11","Střelice, dolní železniční stanice",49.156945,16.508889,"410",0,U14119N477,2,
"U11009Z21","Brno-Starý Lískovec",49.162216,16.570659,"101",0,U11009N479,2,
"U14110Z11","Troubsko, U dráhy",49.163728,16.526078,"410",0,U14110N480,2,
"U24102Z2","Omice",49.160556,16.446945,"410",0,U24102N481,2,
"U24102Z1","Omice",49.160556,16.446945,"410",0,U24102N481,2,
"U14110Z10","Troubsko, U dráhy",49.164172,16.527167,"410",0,U14110N480,2,
"U11009Z22","Brno-Starý Lískovec",49.162216,16.570659,"101",0,U11009N479,2,
"U14454Z10","Ivančice, železniční stanice",49.098056,16.371389,"447",0,U14454N482,2,
"U24403Z1","Ivančice město",49.099167,16.383722,"447",0,U24403N483,2,
"U24402Z1","Ivančice letovisko",49.094167,16.40225,"447",0,U24402N484,2,
"U14350Z10","Moravské Bránice, žel. st.",49.084611,16.428333,"437",0,U14350N485,2,
"U14350Z11","Moravské Bránice, žel. st.",49.084611,16.428333,"437",0,U14350N485,2,
"U24402Z2","Ivančice letovisko",49.094167,16.40225,"447",0,U24402N484,2,
"U24403Z2","Ivančice město",49.099167,16.383722,"447",0,U24403N483,2,
"U14454Z11","Ivančice, železniční stanice",49.098056,16.371389,"447",0,U14454N482,2,
"U14479Z10","Moravský Krumlov, železniční stanice",49.046389,16.338056,"448",0,U14479N486,2,
"U24203Z1","Silůvky",49.108611,16.462778,"427",0,U24203N487,2,
"U14490Z10","Moravský Krumlov, Rakšice, žel.st.",49.014428,16.34527,"448",0,U14490N488,2,
"U24202Z1","Radostice",49.133611,16.461945,"427",0,U24202N489,2,
"U24203Z2","Silůvky",49.108611,16.462778,"427",0,U24203N487,2,
"U14479Z11","Moravský Krumlov, železniční stanice",49.046389,16.338056,"448",0,U14479N486,2,
"U14490Z11","Moravský Krumlov, Rakšice, žel.st.",49.014428,16.34527,"448",0,U14490N488,2,
"U24501Z11","Bohutice",48.987956,16.356025,"459",0,U24501N490,2,
"U24501Z10","Bohutice",48.987956,16.356025,"459",0,U24501N490,2,
"U14555Z11","Miroslav, železniční stanice",48.93532,16.362297,"459",0,U14555N491,2,
"U25506Z11","Dolenice",48.9122,16.367822,"550",0,U25506N492,2,
"U25507Z11","Břežany",48.873106,16.367539,"550",0,U25507N493,2,
"U25603Z11","Pravice",48.848689,16.370211,"560",0,U25603N494,2,
"U15637Z13","Hrušovany nad Jevišovkou, žel. st.",48.810029,16.383137,"560",0,U15637N6,2,
"U15637Z12","Hrušovany nad Jevišovkou, žel. st.",48.810029,16.383137,"560",0,U15637N6,2,
"U25603Z10","Pravice",48.848689,16.370211,"560",0,U25603N494,2,
"U25507Z10","Břežany",48.873106,16.367539,"550",0,U25507N493,2,
"U25506Z10","Dolenice",48.9122,16.367822,"550",0,U25506N492,2,
"U14555Z10","Miroslav, železniční stanice",48.93532,16.362297,"459",0,U14555N491,2,
"U24202Z2","Radostice",49.133611,16.461945,"427",0,U24202N489,2,
"U24301Z2","Vysoké Popovice",49.178333,16.291111,"435",0,U24301N495,2,
"U14435Z11","Rapotice, železniční stanice",49.184028,16.256111,"446",0,U14435N496,2,
"U24401Z2","Kralice nad Oslavou",49.193333,16.204722,"446",0,U24401N497,2,
"U24401Z1","Kralice nad Oslavou",49.193333,16.204722,"446",0,U24401N497,2,
"U14435Z10","Rapotice, železniční stanice",49.184028,16.256111,"446",0,U14435N496,2,
"U24301Z1","Vysoké Popovice",49.178333,16.291111,"435",0,U24301N495,2,
"U16211Z11","Křenovice, dol. žel. st.",49.144328,16.834021,"620",0,U16211N498,2,
"U16333Z11","Slavkov u Brna, žel. st.",49.14495,16.873475,"635",0,U16333N248,2,
"U16318Z11","Křižanovice, žel. st.",49.145011,16.934747,"635",0,U16318N499,2,
"U16406Z11","Bučovice, Marefy, žel. st.",49.149167,16.973056,"645",0,U16406N500,2,
"U16463Z51","Bučovice, železniční stanice",49.145619,16.999658,"645",0,U16463N501,2,
"U26501Z2","Nevojice",49.136847,17.04775,"645",0,U26501N502,2,
"U16509Z11","Nesovice, železniční stanice",49.149167,17.081111,"655",0,U16509N503,2,
"U16628Z11","Brankovice, železniční stanice",49.150361,17.13375,"655",0,U16628N504,2,
"U16503Z11","Nemotice, železniční stanice",49.133056,17.115,"655",0,U16503N505,2,
"U26601Z2","Jestřabice",49.088889,17.113333,"665",0,U26601N506,2,
"U16604Z11","Kyjov, Bohuslavice, železniční stanice",49.055833,17.118917,"675",0,U16604N507,2,
"U16650Z51","Kyjov, železniční stanice",49.013889,17.120833,"675",0,U16650N508,2,
"U26603Z2","Kyjov zastávka",49.003117,17.124022,"675",0,U26603N509,2,
"U26801Z11","Vlkoš",48.987806,17.163569,"685",0,U26801N510,2,
"U26802Z11","Vracov",48.976457,17.221155,"685",0,U26802N511,2,
"U16908Z11","Bzenec, železniční stanice",48.969173,17.263183,"695",0,U16908N512,2,
"U19316Z13","Veselí nad Moravou, železniční stanice",48.948694,17.382439,"935",0,U19316N513,2,
"U19310Z12","Veselí nad Moravou, Milokošť",48.966335,17.398435,"935",0,U19310N514,2,
"U29404Z11","Uherský Ostroh",48.981817,17.403441,"935",0,U29404N515,2,
"U30314Z1","Ostrožská Nová Ves",49.009594,17.436368,"947",0,U30314N516,2,
"U31103Z1","Ostrožská Nová Ves lázně",49.018181,17.446255,"947",0,U31103N517,2,
"U31025Z2","Kunovice zastávka",49.038039,17.461023,"957",0,U31025N518,2,
"U31025Z1","Kunovice zastávka",49.038454,17.46113,"957",0,U31025N518,2,
"U31103Z2","Ostrožská Nová Ves lázně",49.018181,17.446255,"947",0,U31103N517,2,
"U30314Z2","Ostrožská Nová Ves",49.009975,17.436797,"947",0,U30314N516,2,
"U29404Z10","Uherský Ostroh",48.982198,17.403538,"935",0,U29404N515,2,
"U19310Z11","Veselí nad Moravou, Milokošť",48.966335,17.398435,"935",0,U19310N514,2,
"U19316Z12","Veselí nad Moravou, železniční stanice",48.948694,17.382439,"935",0,U19316N513,2,
"U16908Z10","Bzenec, železniční stanice",48.969173,17.263183,"695",0,U16908N512,2,
"U26802Z10","Vracov",48.976457,17.221155,"685",0,U26802N511,2,
"U26801Z10","Vlkoš",48.987806,17.163569,"685",0,U26801N510,2,
"U26603Z1","Kyjov zastávka",49.003117,17.124022,"675",0,U26603N509,2,
"U16650Z50","Kyjov, železniční stanice",49.013889,17.120833,"675",0,U16650N508,2,
"U16604Z10","Kyjov, Bohuslavice, železniční stanice",49.055833,17.118917,"675",0,U16604N507,2,
"U26601Z1","Jestřabice",49.088889,17.113333,"665",0,U26601N506,2,
"U16503Z10","Nemotice, železniční stanice",49.133056,17.115,"655",0,U16503N505,2,
"U16628Z10","Brankovice, železniční stanice",49.150361,17.13375,"655",0,U16628N504,2,
"U16509Z10","Nesovice, železniční stanice",49.149167,17.081111,"655",0,U16509N503,2,
"U26501Z1","Nevojice",49.136847,17.04775,"645",0,U26501N502,2,
"U16463Z50","Bučovice, železniční stanice",49.145619,16.999658,"645",0,U16463N501,2,
"U16406Z10","Bučovice, Marefy, žel. st.",49.149167,16.973056,"645",0,U16406N500,2,
"U16318Z10","Křižanovice, žel. st.",49.145011,16.934747,"635",0,U16318N499,2,
"U16333Z10","Slavkov u Brna, žel. st.",49.14495,16.873475,"635",0,U16333N248,2,
"U16211Z10","Křenovice, dol. žel. st.",49.144328,16.834021,"620",0,U16211N498,2,
"U26103Z1","Blažovice",49.163735,16.798179,"610",0,U26103N519,2,
"U16121Z10","Ponětovice, železniční stanice",49.154709,16.748578,"610",0,U16121N520,2,
"U16137Z10","Šlapanice, železniční stanice",49.156654,16.729514,"610",0,U16137N521,2,
"U16136Z11","Šlapanice, železniční zastávka",49.163271,16.718638,"610",0,U16136N522,2,
"U1573Z10","Slatina, nádraží",49.169478,16.682148,"101",0,U1573N523,2,
"U1573Z11","Slatina, nádraží",49.169478,16.682148,"101",0,U1573N523,2,
"U16136Z12","Šlapanice, železniční zastávka",49.163271,16.719131,"610",0,U16136N522,2,
"U16137Z11","Šlapanice, železniční stanice",49.156654,16.729514,"610",0,U16137N521,2,
"U16121Z11","Ponětovice, železniční stanice",49.154709,16.748578,"610",0,U16121N520,2,
"U26103Z2","Blažovice",49.163735,16.798179,"610",0,U26103N519,2,
"U11001Z2","Brno-Černovice",49.188984,16.631233,"100",0,U11001N524,2,
"U11001Z1","Brno-Černovice",49.188984,16.631233,"100",0,U11001N524,2,
"U16908Z13","Bzenec, železniční stanice",48.969173,17.263183,"695",0,U16908N512,2,
"U26901Z11","Bzenec-Olšovec",48.970217,17.293339,"695",0,U26901N525,2,
"U19302Z12","Moravský Písek, Kolonie, žel. stanice",48.977119,17.314582,"695",0,U19302N459,2,
"U26901Z10","Bzenec-Olšovec",48.970217,17.293339,"695",0,U26901N525,2,
"U19316Z10","Veselí nad Moravou, železniční stanice",48.948694,17.382439,"935",0,U19316N513,2,
"U29302Z10","Veselí nad Moravou-Zarazice",48.937236,17.361306,"935",0,U29302N526,2,
"U29303Z10","Vnorovy",48.931508,17.348464,"935",0,U29303N527,2,
"U19205Z10","Strážnice, aut. st.",48.897385,17.317688,"925",0,U19205N175,2,
"U29201Z10","Petrov",48.878911,17.273703,"925",0,U29201N528,2,
"U29202Z10","Sudoměřice nad Moravou",48.871653,17.243039,"925",0,U29202N529,2,
"U29104Z10","Rohatec kolonie",48.892642,17.212111,"915",0,U29104N530,2,
"U29104Z11","Rohatec kolonie",48.892642,17.212111,"915",0,U29104N530,2,
"U29202Z11","Sudoměřice nad Moravou",48.871653,17.243039,"925",0,U29202N529,2,
"U29201Z11","Petrov",48.878911,17.273703,"925",0,U29201N528,2,
"U19205Z11","Strážnice, aut. st.",48.897385,17.317688,"925",0,U19205N175,2,
"U29303Z11","Vnorovy",48.931508,17.348464,"935",0,U29303N527,2,
"U29302Z11","Veselí nad Moravou-Zarazice",48.937236,17.361306,"935",0,U29302N526,2,
"U19316Z11","Veselí nad Moravou, železniční stanice",48.948694,17.382439,"935",0,U19316N513,2,
"U29403Z11","Blatnice pod Sv. Antonínkem",48.941163,17.437706,"945",0,U29403N531,2,
"U29402Z11","Lipov",48.909806,17.457953,"945",0,U29402N532,2,
"U29401Z11","Louka u Ostrohu",48.912234,17.484226,"945",0,U29401N533,2,
"U19530Z11","Velká nad Veličkou, železniční stanice",48.878631,17.51092,"955",0,U19530N534,2,
"U29502Z11","Javorník nad Veličkou zastávka",48.86,17.520833,"955",0,U29502N535,2,
"U29501Z11","Vrbovce",48.824439,17.516352,"965",0,U29501N536,2,
"U29504Z2","Vrbovce zastávka",48.804784,17.52869,"965",0,U29504N537,2,
"U29601Z2","Brestovec",48.786012,17.557593,"965",0,U29601N538,2,
"U29602Z2","Myjava",48.763641,17.570897,"975",0,U29602N539,2,
"U29602Z1","Myjava",48.763641,17.570897,"975",0,U29602N539,2,
"U29601Z1","Brestovec",48.786012,17.557593,"965",0,U29601N538,2,
"U29504Z1","Vrbovce zastávka",48.804784,17.52869,"965",0,U29504N537,2,
"U29501Z10","Vrbovce",48.824439,17.516352,"965",0,U29501N536,2,
"U29502Z10","Javorník nad Veličkou zastávka",48.86,17.520833,"955",0,U29502N535,2,
"U19530Z10","Velká nad Veličkou, železniční stanice",48.878631,17.51092,"955",0,U19530N534,2,
"U29401Z10","Louka u Ostrohu",48.912234,17.484226,"945",0,U29401N533,2,
"U29402Z10","Lipov",48.909806,17.457953,"945",0,U29402N532,2,
"U29403Z10","Blatnice pod Sv. Antonínkem",48.941163,17.437706,"945",0,U29403N531,2,
"U16115Z2","Kobylnice, obecní úřad",49.137579,16.732781,"610",0,U16115N540,2,
"U16111Z2","Kobylnice",49.140187,16.731883,"610",0,U16111N541,2,
"U16137Z2","Šlapanice, železniční stanice",49.159177,16.728893,"610",0,U16137N521,2,
"U16159Z4","Šlapanice, Kalvodova",49.166805,16.72634,"610",0,U16159N542,2,
"U16163Z2","Šlapanice, Riegrova",49.168445,16.726032,"610",0,U16163N543,2,
"U16129Z2","Šlapanice, Bedřichovice",49.179845,16.721551,"610",0,U16129N544,2,
"U16130Z4","Šlapanice, Bedřichovice, rozc.",49.183532,16.722542,"610",0,U16130N215,2,
"U16116Z2","Podolí",49.189822,16.726255,"610",0,U16116N545,2,
"U16116Z1","Podolí",49.189832,16.725978,"610",0,U16116N545,2,
"U16130Z3","Šlapanice, Bedřichovice, rozc.",49.18336,16.722373,"610",0,U16130N215,2,
"U16129Z1","Šlapanice, Bedřichovice",49.17982,16.721481,"610",0,U16129N544,2,
"U16163Z3","Šlapanice, Riegrova",49.168445,16.726032,"610",0,U16163N543,2,
"U16118Z2","Podolí, Líšeňská",49.191807,16.71978,"610",0,U16118N546,2,
"U1497Z2","Podolská",49.20311,16.713363,"101",0,U1497N547,2,
"U1726Z2","Velatická",49.204666,16.707253,"101",0,U1726N548,1,
"U1350Z2","Macháčkova",49.206174,16.701931,"101",0,U1350N549,1,
"U1421Z4","Náměstí Karla IV.",49.206991,16.695508,"101",0,U1421N550,1,
"U1384Z3","Mifkova",49.20716,16.692152,"101",0,U1384N551,1,
"U1208Z6","Jírova",49.209179,16.688685,"101",0,U1208N552,2,6
"U1208Z4","Jírova",49.209099,16.688056,"101",0,U1208N552,2,4
"U1421Z3","Náměstí Karla IV.",49.206713,16.694241,"101",0,U1421N550,1,
"U1350Z1","Macháčkova",49.206052,16.70193,"101",0,U1350N549,1,
"U1726Z1","Velatická",49.204129,16.708116,"101",0,U1726N548,1,
"U1497Z1","Podolská",49.203029,16.714223,"101",0,U1497N547,2,
"U16118Z1","Podolí, Líšeňská",49.191843,16.719825,"610",0,U16118N546,2,
"U16159Z3","Šlapanice, Kalvodova",49.165936,16.726067,"610",0,U16159N542,2,
"U16137Z1","Šlapanice, železniční stanice",49.15865,16.729037,"610",0,U16137N521,2,
"U16111Z1","Kobylnice",49.140325,16.731953,"610",0,U16111N541,2,
"U16115Z1","Kobylnice, obecní úřad",49.137533,16.732766,"610",0,U16115N540,2,
"U16172Z1","Kobylnice, hřbitov",49.132298,16.732949,"610",0,U16172N553,2,
"U16161Z1","Sokolnice, u hřbitova",49.121132,16.730492,"610",0,U16161N554,2,
"U16127Z1","Sokolnice, zámek",49.117865,16.725248,"610",0,U16127N555,2,
"U16149Z2","Sokolnice, železniční stanice",49.108258,16.734145,"610",0,U16149N316,2,2
"U16138Z1","Telnice",49.10148,16.718652,"610",0,U16138N156,2,
"U16152Z51","Žatčany, u mlýna",49.086683,16.722535,"610",0,U16152N556,2,
"U15171Z1","Měnín, u pomníku",49.085837,16.699069,"510",0,U15171N557,2,
"U15128Z1","Měnín, u mlýna",49.084102,16.694181,"510",0,U15128N558,2,
"U15165Z1","Měnín, obchodní středisko",49.079732,16.693543,"510",0,U15165N559,2,
"U15125Z1","Měnín, Albrechtov",49.068535,16.682603,"510",0,U15125N560,2,
"U15216Z1","Blučina, hřbitov",49.052406,16.657125,"525",0,U15216N561,2,
"U15214Z3","Blučina, náměstí",49.054957,16.646473,"525",0,U15214N562,2,
"U15213Z1","Blučina, Komenského",49.055353,16.635147,"525",0,U15213N563,2,
"U15217Z1","Blučina, ZD",49.053207,16.626305,"525",0,U15217N564,2,
"U15239Z1","Židlochovice, sídliště",49.039291,16.616336,"525",0,U15239N565,2,
"U15229Z8","Židlochovice, aut. st.",49.035879,16.614708,"525",0,U15229N566,2,3
"U15241Z51","Židlochovice, železniční stanice",49.033692,16.616779,"525",0,U15241N438,2,1
"U15241Z1","Židlochovice, železniční stanice",49.033614,16.616961,"525",0,U15241N438,2,2
"U15229Z1","Židlochovice, aut. st.",49.036171,16.614705,"525",0,U15229N566,2,1
"U15239Z2","Židlochovice, sídliště",49.03991,16.616314,"525",0,U15239N565,2,
"U15217Z2","Blučina, ZD",49.053727,16.627398,"525",0,U15217N564,2,
"U15213Z2","Blučina, Komenského",49.055315,16.635013,"525",0,U15213N563,2,
"U15214Z2","Blučina, náměstí",49.054872,16.646478,"525",0,U15214N562,2,
"U15216Z2","Blučina, hřbitov",49.05241,16.656709,"525",0,U15216N561,2,
"U15125Z2","Měnín, Albrechtov",49.068523,16.682727,"510",0,U15125N560,2,
"U15165Z2","Měnín, obchodní středisko",49.079732,16.693543,"510",0,U15165N559,2,
"U15171Z2","Měnín, u pomníku",49.085542,16.698556,"510",0,U15171N557,2,
"U16152Z1","Žatčany, u mlýna",49.086572,16.726,"610",0,U16152N556,2,
"U16151Z1","Žatčany, škola",49.089367,16.731432,"610",0,U16151N567,2,
"U16151Z2","Žatčany, škola",49.089367,16.731432,"610",0,U16151N567,2,
"U16152Z2","Žatčany, u mlýna",49.086637,16.725932,"610",0,U16152N556,2,
"U16138Z2","Telnice",49.101515,16.719568,"610",0,U16138N156,2,
"U16158Z1","Újezd u Brna, škola",49.103793,16.754275,"610",0,U16158N568,2,
"U16112Z2","Kobylnice, Na Rybníku",49.142864,16.726626,"610",0,U16112N569,2,
"U1098Z2","Dvorska, smyčka",49.143433,16.706723,"101",0,U1098N570,2,
"U1742Z2","Vlčkova",49.141158,16.70137,"101",0,U1742N571,2,
"U1513Z2","Pratecká",49.146305,16.681206,"101",0,U1513N572,1,
"U1738Z2","Vítězná",49.147316,16.670949,"101",0,U1738N573,2,
"U1131Z4","Hanácká",49.147804,16.66765,"101",0,U1131N159,1,
"U1154Z1","Holásecká",49.147496,16.661062,"101",0,U1154N574,2,
"U1543Z2","Rolencova",49.145353,16.655599,"101",0,U1543N575,2,
"U1151Z4","Holásky",49.143524,16.650636,"101",0,U1151N576,1,
"U1717Z2","V aleji",49.148,16.648573,"101",0,U1717N577,1,
"U1518Z2","Prodloužená",49.152176,16.647669,"101",0,U1518N578,2,
"U1696Z14","ÚAN Zvonařka",49.185364,16.616151,"100",0,U1696N29,2,37
"U1716Z7","Úzká",49.188863,16.613326,"100",0,U1716N579,1,8
"U16141Z1","Prace, škola",49.138783,16.762768,"610",0,U16141N580,2,
"U16139Z1","Prace, náves",49.139432,16.765133,"610",0,U16139N581,2,
"U16143Z1","Prace, točna",49.141017,16.764052,"610",0,U16143N582,2,
"U16143Z2","Prace, točna",49.1411,16.764035,"610",0,U16143N582,2,
"U16139Z2","Prace, náves",49.1395,16.765083,"610",0,U16139N581,2,
"U16141Z2","Prace, škola",49.138867,16.762701,"610",0,U16141N580,2,
"U1788Z6","Zetor - smyčka",49.199463,16.67024,"101",0,U1788N583,2,
"U16142Z1","Tvarožná, zemědělské družstvo",49.185906,16.765089,"610",0,U16142N584,2,
"U16153Z1","Tvarožná",49.190736,16.770347,"610",0,U16153N585,2,
"U16140Z1","Tvarožná, sokolovna",49.193053,16.776292,"610",0,U16140N586,2,
"U17215Z1","Sivice",49.201394,16.783639,"720",0,U17215N587,2,
"U17212Z1","Pozořice, náměstí",49.208924,16.790865,"720",0,U17212N588,2,
"U17212Z2","Pozořice, náměstí",49.209871,16.790286,"720",0,U17212N588,2,
"U17215Z2","Sivice",49.201272,16.783517,"720",0,U17215N587,2,
"U16140Z2","Tvarožná, sokolovna",49.193067,16.775881,"610",0,U16140N586,2,
"U16153Z2","Tvarožná",49.190839,16.770364,"610",0,U16153N585,2,
"U16142Z2","Tvarožná, zemědělské družstvo",49.185883,16.764842,"610",0,U16142N584,2,
"U1798Z5","Zvonařka",49.18754,16.620139,"100",0,U1798N589,1,
"U1716Z3","Úzká",49.189244,16.613733,"100",0,U1716N579,2,4
"U16163Z1","Šlapanice, Riegrova",49.168445,16.726032,"610",0,U16163N543,2,
"U16120Z1","Ponětovice",49.152352,16.740815,"610",0,U16120N590,2,
"U16121Z1","Ponětovice, železniční stanice",49.154645,16.747738,"610",0,U16121N520,2,
"U16104Z1","Jiříkovice",49.16632,16.757892,"610",0,U16104N591,2,
"U16102Z1","Blažovice, pod kostelem",49.162833,16.78274,"610",0,U16102N592,2,
"U16101Z1","Blažovice, hostinec",49.166001,16.786446,"610",0,U16101N593,2,
"U16101Z2","Blažovice, hostinec",49.166001,16.786446,"610",0,U16101N593,2,
"U16102Z2","Blažovice, pod kostelem",49.162842,16.783037,"610",0,U16102N592,2,
"U16104Z2","Jiříkovice",49.166323,16.757805,"610",0,U16104N591,2,
"U16121Z2","Ponětovice, železniční stanice",49.154698,16.747757,"610",0,U16121N520,2,
"U16120Z2","Ponětovice",49.152307,16.742117,"610",0,U16120N590,2,
"U1362Z1","Mariánské údolí",49.203331,16.716449,"101",0,U1362N594,2,
"U1362Z4","Mariánské údolí",49.20332,16.71587,"101",0,U1362N594,2,
"U16152Z52","Žatčany, u mlýna",49.086683,16.722535,"610",0,U16152N556,2,
"U16127Z2","Sokolnice, zámek",49.11788,16.724835,"610",0,U16127N555,2,
"U16161Z2","Sokolnice, u hřbitova",49.121768,16.730846,"610",0,U16161N554,2,
"U16172Z2","Kobylnice, hřbitov",49.132361,16.733035,"610",0,U16172N553,2,
"U15241Z11","Židlochovice, železniční stanice",49.033764,16.617041,"525",0,U15241N438,2,4
"U15228Z1","Židlochovice, ADOSA",49.028803,16.61698,"525",0,U15228N595,2,
"U15302Z1","Unkovice, rozc.",49.015384,16.603832,"535",0,U15302N596,2,
"U15304Z1","Žabčice, sokolovna",49.012877,16.60025,"535",0,U15304N597,2,
"U15306Z1","Žabčice, žel. st.",49.011645,16.595305,"535",0,U15306N428,2,
"U15306Z2","Žabčice, žel. st.",49.011645,16.595305,"535",0,U15306N428,2,
"U15303Z2","Žabčice",49.013502,16.601017,"535",0,U15303N598,2,
"U15302Z2","Unkovice, rozc.",49.01553,16.604708,"535",0,U15302N596,2,
"U15228Z2","Židlochovice, ADOSA",49.028795,16.617087,"525",0,U15228N595,2,
"U15241Z12","Židlochovice, železniční stanice",49.033913,16.617093,"525",0,U15241N438,2,5
"U15229Z6","Židlochovice, aut. st.",49.036103,16.615072,"525",0,U15229N566,2,
"U15241Z2","Židlochovice, železniční stanice",49.033614,16.616961,"525",0,U15241N438,2,2
"U15229Z3","Židlochovice, aut. st.",49.036054,16.614606,"525",0,U15229N566,2,4
"U15219Z1","Hrušovany u Brna, obecní úřad",49.038383,16.594035,"525",0,U15219N599,2,
"U15222Z1","Hrušovany u Brna, žel. st.",49.034274,16.591904,"525",0,U15222N427,2,
"U15220Z1","Hrušovany u Brna, sídliště",49.039297,16.584727,"525",0,U15220N600,2,
"U15221Z1","Hrušovany u Brna, VÚZA",49.042062,16.577123,"525",0,U15221N601,2,
"U15211Z2","Syrovice, MŠ",49.078921,16.546658,"520",0,U15211N602,2,
"U15243Z1","Syrovice, Chocholáč",49.075773,16.541749,"520",0,U15243N603,2,
"U15201Z1","Bratčice",49.065403,16.522683,"520",0,U15201N604,2,
"U15202Z1","Bratčice, pískovna",49.059642,16.517487,"520",0,U15202N605,2,
"U15207Z1","Němčičky",49.050522,16.500786,"520",0,U15207N606,2,
"U14354Z1","Pravlov",49.054622,16.486675,"437",0,U14354N607,2,
"U14355Z1","Pravlov, kulturní dům",49.054161,16.479892,"437",0,U14355N608,2,
"U14339Z2","Dolní Kounice, Masarykovo nám.",49.070302,16.464113,"437",0,U14339N609,2,
"U14341Z1","Dolní Kounice, Skalní",49.070334,16.456634,"437",0,U14341N610,2,
"U14351Z1","Nové Bránice",49.070496,16.443067,"437",0,U14351N611,2,
"U14353Z1","Nové Bránice, škola",49.073418,16.439379,"437",0,U14353N612,2,
"U14352Z1","Nové Bránice, rozc.",49.078247,16.439327,"437",0,U14352N613,2,
"U14348Z1","Moravské Bránice, škola",49.081618,16.438242,"437",0,U14348N614,2,
"U14350Z2","Moravské Bránice, žel. st.",49.084918,16.429257,"437",0,U14350N485,2,
"U14347Z1","Moravské Bránice, U Mašinhózu",49.083147,16.433545,"437",0,U14347N615,2,
"U14452Z2","Ivančice, Stříbský mlýn",49.089548,16.404598,"447",0,U14452N616,2,
"U14444Z2","Ivančice, Horní Hlinky",49.100605,16.389207,"447",0,U14444N617,2,
"U14446Z11","Ivančice, náměstí",49.102113,16.375269,"447",0,U14446N618,2,2
"U14446Z6","Ivančice, náměstí",49.102368,16.375382,"447",0,U14446N618,2,6
"U14444Z1","Ivančice, Horní Hlinky",49.103429,16.381899,"447",0,U14444N617,2,
"U14452Z1","Ivančice, Stříbský mlýn",49.089527,16.404487,"447",0,U14452N616,2,
"U14347Z2","Moravské Bránice, U Mašinhózu",49.083147,16.433545,"437",0,U14347N615,2,
"U14350Z1","Moravské Bránice, žel. st.",49.084918,16.429257,"437",0,U14350N485,2,
"U14348Z2","Moravské Bránice, škola",49.081437,16.438245,"437",0,U14348N614,2,
"U14352Z2","Nové Bránice, rozc.",49.078247,16.439327,"437",0,U14352N613,2,
"U14353Z2","Nové Bránice, škola",49.073323,16.439369,"437",0,U14353N612,2,
"U14351Z2","Nové Bránice",49.070213,16.443703,"437",0,U14351N611,2,
"U14341Z2","Dolní Kounice, Skalní",49.070278,16.456749,"437",0,U14341N610,2,
"U14339Z1","Dolní Kounice, Masarykovo nám.",49.070302,16.464113,"437",0,U14339N609,2,
"U14355Z2","Pravlov, kulturní dům",49.054267,16.480336,"437",0,U14355N608,2,
"U14354Z2","Pravlov",49.054483,16.486867,"437",0,U14354N607,2,
"U15207Z2","Němčičky",49.050564,16.501069,"520",0,U15207N606,2,
"U15202Z2","Bratčice, pískovna",49.059722,16.517698,"520",0,U15202N605,2,
"U15201Z2","Bratčice",49.0656,16.522952,"520",0,U15201N604,2,
"U15243Z2","Syrovice, Chocholáč",49.075586,16.541475,"520",0,U15243N603,2,
"U15211Z1","Syrovice, MŠ",49.078921,16.546658,"520",0,U15211N602,2,
"U15221Z2","Hrušovany u Brna, VÚZA",49.042062,16.577123,"525",0,U15221N601,2,
"U15220Z2","Hrušovany u Brna, sídliště",49.039155,16.584847,"525",0,U15220N600,2,
"U15222Z2","Hrušovany u Brna, žel. st.",49.034274,16.591904,"525",0,U15222N427,2,
"U15219Z2","Hrušovany u Brna, obecní úřad",49.039798,16.595027,"525",0,U15219N599,2,
"U15230Z1","Židlochovice, škola",49.037011,16.610483,"525",0,U15230N619,2,
"U15229Z5","Židlochovice, aut. st.",49.036054,16.614606,"525",0,U15229N566,2,4
"U15303Z1","Žabčice",49.01156,16.602326,"535",0,U15303N598,2,
"U15305Z1","Žabčice, u Mahovských",49.004713,16.609833,"535",0,U15305N620,2,
"U15301Z1","Přísnotice",49.003395,16.613415,"535",0,U15301N621,2,
"U15301Z2","Přísnotice",49.003395,16.613415,"535",0,U15301N621,2,
"U15305Z2","Žabčice, u Mahovských",49.004753,16.609845,"535",0,U15305N620,2,
"U12359Z1","Blansko, Hořice",49.356217,16.623013,"235",0,U12359N622,2,
"U12380Z1","Blansko, Olešná",49.339693,16.637515,"235",0,U12380N623,2,
"U12340Z2","Blansko, rozvodna, točna",49.350642,16.644909,"235",0,U12340N624,2,
"U12341Z2","Blansko, Synthon",49.353202,16.642345,"235",0,U12341N625,2,
"U12041Z81","Blansko, Komenského",49.359837,16.638651,"235",0,U12041N626,2,
"U12343Z1","Blansko, Brněnská",49.35642,16.639269,"235",0,U12343N627,2,
"U12342Z31","Blansko, aut. st.",49.353401,16.64738,"235",0,U12342N377,2,
"U12342Z3","Blansko, aut. st.",49.353508,16.647103,"235",0,U12342N377,2,5
"U12389Z1","Blansko, rozcestí Klepačov",49.346355,16.650873,"235",0,U12389N628,2,
"U12008Z1","Šebrov-Kateřina, Sv. Kateřina",49.330252,16.614607,"226",0,U12008N629,2,
"U12009Z1","Šebrov-Kateřina, Šebrov",49.328949,16.598162,"226",0,U12009N630,2,
"U12006Z1","Svinošice",49.333413,16.574056,"226",0,U12006N631,2,
"U12005Z1","Lipůvka, ZŠ",49.338205,16.557915,"226",0,U12005N632,2,
"U12004Z2","Lipůvka",49.338367,16.552513,"226",0,U12004N633,2,
"U13131Z2","Kuřim, Prefa rozcestí",49.316222,16.548481,"310",0,U13131N634,2,
"U13129Z1","Kuřim, TE",49.314291,16.547073,"310",0,U13129N635,2,
"U13127Z2","Kuřim, TOS",49.31349,16.54055,"310",0,U13127N636,2,
"U13128Z2","Kuřim, poliklinika",49.309396,16.533817,"310",0,U13128N637,2,
